,rides,year,start_stn_code,stn_name,stn_lat,stn_lon
0,4478.0,2021,10,Métro Angrignon (Lamont /  des Trinitaires),45.44691,-73.60363
1,6871.0,2021,100,16e avenue / St-Joseph,45.55287,-73.565631
2,1093.0,2021,1000,Parc Champdoré (Champdoré / de Lille),45.569176,-73.636293
3,4469.0,2021,1002,Vendôme / Sherbrooke,45.475963,-73.607234
4,3179.0,2021,1003,Parc Tino-Rossi (18e avenue / Everett),45.564811,-73.595804
5,1383.0,2021,1004,Stinson / Montpellier,45.504014,-73.704427
6,3765.0,2021,1005,Villeneuve / St-Denis,45.525115,-73.586006
7,2658.0,2021,1006,Place du Canada (Peel / de la Gauchetière),45.498468,-73.568434
8,10193.0,2021,1007,Aylmer / Ste-Catherine,45.504347,-73.568949
9,4932.0,2021,1008,Ste-Catherine / Parthenais,45.526235,-73.54895
10,17066.0,2021,1009,de Lanaudière / du Mont-Royal,45.530221,-73.576997
11,6437.0,2021,1010,Métro Pie-IX (Pierre-de-Coubertin / de la Salle),45.555241,-73.550822
12,1181.0,2021,1011,St-Joseph / 21e avenue Lachine,45.433557,-73.684043
13,2161.0,2021,1012,Parc Georges St-Pierre (Upper Lachine / Oxford),45.469027,-73.609537
14,1491.0,2021,1013,Everett / 8e avenue,45.557513,-73.601795
15,2.0,2021,1014,Robert Bourassa / Sainte-Catherine,45.503215,-73.569979
16,12315.0,2021,1015,Robert-Bourassa / Ste-Catherine,45.503215,-73.569979
17,2620.0,2021,1016,Parc Howard (de l'Épée / de Liège),45.56169,-73.610512
18,732.0,2021,1017,Sabrevois / des Récollets,45.583288,-73.632764
19,3568.0,2021,1018,Boyer / Rachel,45.525255,-73.575241
20,812.0,2021,1019,Bishop/ René-Lévesque,45.495323,-73.573887
21,5523.0,2021,1020,Parc Maisonneuve (Viau / Sherbrooke),45.564937,-73.555591
22,29.0,2021,1022,Duchesneau / Marseille,45.609626,-73.522739
23,4625.0,2021,1023,Mansfield / Cathcart,45.50076,-73.570483
24,2016.0,2021,1024,6e avenue / Bélanger,45.554564,-73.596157
25,6048.0,2021,1025,Marquette / Gilford,45.533851,-73.578912
26,515.0,2021,1026,Duchesneau / de Marseille,45.609626,-73.522739
27,5280.0,2021,1027,St-Antoine / de la Montagne,45.495372,-73.568589
28,45.0,2021,1028,Berri/ Duluth,45.521685,-73.574942
29,4673.0,2021,1029,Métro Lionel-Groulx (Saint-Jacques/ Atwater),45.483629,-73.579703
30,5183.0,2021,1030,Bishop / René-Lévesque,45.495323,-73.573887
31,7994.0,2021,1031,Berri / Duluth,45.521685,-73.574942
32,939.0,2021,1032,Parc des Hirondelles (Fleury / André-Jobin),45.576,-73.646765
33,8452.0,2021,1033,Parc Baldwin (Fullum / Sherbrooke),45.534071,-73.562651
34,5010.0,2021,1034,Parc Père-Marquette (de Lanaudière / de Bellechasse),45.539324,-73.595878
35,99.0,2021,1036,Dixie / 53e avenue,45.443351,-73.716905
36,614.0,2021,1037,Alexis-Nihon / St-Louis,45.500339,-73.682621
37,139.0,2021,1038,Parc Marlborough (Beauzèle / Robichaud),45.522342,-73.721679
38,1327.0,2021,1039,Fleury / de St-Firmin,45.570506,-73.651781
39,416.0,2021,1040,Parc Reine-Élizabeth (Penniston / Crawford),45.439145,-73.591737
40,14117.0,2021,1041,Parc du Pélican (1ère avenue / Masson),45.5452,-73.576451
41,508.0,2021,1042,Hutchison / Beaumont,45.528446,-73.618702
42,365.0,2021,1043,Dandurand / des Érables,45.540823,-73.58421
43,3189.0,2021,1044,Gilford / des Érables,45.537527,-73.575124
44,170.0,2021,1045,Parc Langelier - Marie-Victorin,45.61443,-73.612233
45,1441.0,2021,1046,Robin / de la Visitation,45.520923,-73.559177
46,52.0,2021,1047,Parc Hébert ( Provencher / Buies),45.571627,-73.592048
47,144.0,2021,1048,41e avenue / Victoria,45.440347,-73.702313
48,1336.0,2021,1049,Métro Snowdon (Dornal / Westbury),45.485631,-73.628765
49,61.0,2021,1050,Parc Ivan-Franko (33e avenue / Victoria),45.43746,-73.693532
50,54.0,2021,1051,19e avenue / Saint-Antoine,45.439779,-73.681371
51,46.0,2021,1052,Parc Maurice Bélanger (Forest / de l'Hôtel-de-Ville),45.588356,-73.631712
52,1849.0,2021,1053,Pratt / Bates,45.516948,-73.626316
53,1982.0,2021,1054,McCulloch / de la Côte Ste-Catherine,45.515775,-73.600609
54,87.0,2021,1055,Parc Sauvé (Balzac / de Bayonne),45.599086,-73.636948
55,1976.0,2021,1056,Ste-Catherine / Sanguinet,45.512894,-73.561248
56,480.0,2021,1057,de Côme / Jean-Talon,45.588303,-73.577837
57,2651.0,2021,1058,Wellington / 2e avenue,45.457591,-73.567559
58,2916.0,2021,1059,Wellington / Hickson,45.465058,-73.566775
59,37.0,2021,1060,Legrand / Laurier,45.550223,-73.705467
60,896.0,2021,1061,Parc Hébert (Provencher / Buies),45.571627,-73.592048
61,1026.0,2021,1062,Beurling / Godin,45.447916,-73.583819
62,195.0,2021,1063,Letourneaux / Ste-Catherine,45.550784,-73.5341
63,268.0,2021,1064,8e avenue / Saint-Joseph Lachine,45.431648,-73.671125
64,141.0,2021,1065,Laurier / Parisi,45.549783,-73.70631
65,4834.0,2021,1066,Dorion / Gauthier,45.530674,-73.56625
66,4422.0,2021,1067,Chabot / Laurier,45.536856,-73.579373
67,2965.0,2021,1068,Métro Fabre (Marquette / Jean-Talon),45.547408,-73.607669
68,1991.0,2021,1069,Métro Plamondon (de Kent / Victoria),45.494564,-73.638702
69,8428.0,2021,1070,Métro Place-des-Arts (du Président-Kennedy / Jeanne-Mance),45.508205,-73.568814
70,3279.0,2021,1071,Letourneux / Ste-Catherine,45.550784,-73.5341
71,5467.0,2021,1072,Métro Jarry (Lajeunesse / Jarry),45.54356,-73.627772
72,5248.0,2021,1073,Gilford / St-Denis,45.525115,-73.586006
73,2097.0,2021,1074,Sicard / Adam,45.554862,-73.532717
74,189.0,2021,1075,Parc Maurice Bélanger (Hebert / Forest),45.588082,-73.632223
75,2466.0,2021,1076,Durocher / Beaumont,45.528,-73.619236
76,4315.0,2021,1077,Marie-Anne / Papineau,45.531774,-73.572446
77,1232.0,2021,1078,Parc du Pélican (Laurier/ 2e avenue),45.544958,-73.572886
78,595.0,2021,1079,Saint-Viateur / Casgrain,45.527117,-73.597736
79,3090.0,2021,1080,Maguire / Saint-Dominique,45.525268,-73.595237
80,1416.0,2021,1081,Monk / Jacques-Hertel,45.459753,-73.596421
81,655.0,2021,1082,Péloquin / Fleury,45.557022,-73.659902
82,242.0,2021,1083,de l’hôtel de ville / Saint-Joseph,45.524277,-73.58929
83,1369.0,2021,1084,Des Érables / Villeray,45.553948,-73.611575
84,109.0,2021,1085,Parc Henri-Durant (Léger / Henri-Durant),45.56844,-73.675202
85,155.0,2021,1086,Parc Chopin (Dumouchel / Tessier),45.570727,-73.737086
86,1526.0,2021,1087,27e avenue / Rosemont,45.563679,-73.571605
87,791.0,2021,1088,de l'Hôtel-de-Ville / St-Joseph,45.524277,-73.58929
88,4433.0,2021,1089,St-Viateur / Casgrain,45.527117,-73.597736
89,4980.0,2021,1090,Métro Beaudry (Montcalm / de Maisonneuve),45.519132,-73.55789
90,930.0,2021,1091,Durocher / St-Viateur,45.520796,-73.603271
91,2936.0,2021,1092,de Normanville / Beaubien,45.539294,-73.60042
92,1823.0,2021,1093,Querbes / Ball,45.531117,-73.632233
93,2369.0,2021,1094,Sanguinet / Sainte-Catherine,45.512861,-73.561595
94,94.0,2021,1095,Langelier / Marie-Victorin,45.614519,-73.612245
95,3639.0,2021,1096,Drummond / Sherbrooke,45.500392,-73.578168
96,2415.0,2021,1098,Chomedey / Lincoln,45.492227,-73.584782
97,53.0,2021,1099,Parc Dixie (54e avenue / Dixie),45.442397,-73.71765
98,1056.0,2021,1100,Parc Outremont (Bloomfield / St-Viateur),45.519049,-73.604981
99,661.0,2021,1101,de Rouen / Lespérance,45.538627,-73.552839
100,293.0,2021,1102,Ropery / Grand Trunk,45.478671,-73.565705
101,71.0,2021,1103,Parc Wilfrid-Bastien (Lacordaire / des Galets),45.5864,-73.595218
102,80.0,2021,1104,Parc Delorme (Malouin / Laferté),45.59049,-73.590269
103,57.0,2021,1105,Parc St-Laurent (Salk / Thomas-Chapais),45.606235,-73.628784
104,75.0,2021,1106,Parc Saint-Laurent (Dutrisac),45.525914,-73.689112
105,67.0,2021,1107,Parc Beaulac (rue Élizabeth),45.520056,-73.677952
106,189.0,2021,1108,CHSLD St-Michel (8e avenue / Jarry),45.56169,-73.610512
107,68.0,2021,1109,Mairie d'arrondissement Montréal-Nord (Hébert / de Charleroi),45.593985,-73.637672
108,13101.0,2021,111,Hutchison / Sherbrooke,45.507717,-73.57167
109,103.0,2021,1110,Parc Luigi-Pirandello (de Bretagne / Jean-Rivard),45.579406,-73.602589
110,84.0,2021,1111,Parc LaSalle (10e avenue / Victoria),45.438056,-73.672739
111,91.0,2021,1112,Parc Stoney-Point (St-Joseph / 47e avenue),45.436568,-73.70837
112,486.0,2021,1113,Parc riverain de Lachine (des Iroquois),45.430543,-73.669024
113,39.0,2021,1114,Bibliothèque Jean-Corbeil (Goncourt / Place Montrichard),45.602728,-73.55793
114,149.0,2021,1115,Aréna Chaumont (Chaumont / des Ormeaux),45.610927,-73.546735
115,92.0,2021,1116,Parc Chamberland (Dorais / de l'Église),45.502989,-73.689113
116,59.0,2021,1117,Parc Noel-Nord (Toupin / Keller),45.517583,-73.726614
117,110.0,2021,1118,Parc du Bois-Franc (de l'Équateur / des Andes),45.513178,-73.713061
118,17.0,2021,1119,Parc Grovehill (St-Antoine / Ivan-Franko),45.439824,-73.694878
119,96.0,2021,1120,Parc Kirkland (des Érables / Boyer),45.446061,-73.6508
120,87.0,2021,1121,Parc Painter (Marcotte / Quenneville),45.528631,-73.677312
121,469.0,2021,1122,Parc Beaubien (Stuart / St-Viateur),45.516181,-73.608543
122,318.0,2021,1123,Bibliothèque d'Ahuntsic (Lajeunesse / Fleury),45.5534,-73.662255
123,923.0,2021,1124,La Tour de Montréal (Pierre-de-Coubertin / Bennett),45.559705,-73.551554
124,301.0,2021,1125,CCI Outremont (Dollard / Durcharme),45.520019,-73.618907
125,28.0,2021,1126,Terminus Le Carrefour (Terry-Fox / Le Carr),45.56842,-73.746873
126,2111.0,2021,1127,Notre-Dame / Murray,45.494198,-73.563748
127,21.0,2021,1128,Parc Summerlea (53e avenue / St-Joseph),45.438367,-73.715467
128,686.0,2021,1129,Labelle / Ste-Catherine,45.514995,-73.559169
129,162.0,2021,1130,de Normanville / Jean-Talon,45.543962,-73.610768
130,1839.0,2021,1131,Robert-Bourassa / de Maisonneuve,45.503858,-73.571094
131,61.0,2021,1132,Parc Ottawa (de Belleville / Fleury),45.58116,-73.641243
132,487.0,2021,1133,Parc Turin (Chambord / Jean-Talon),45.544681,-73.610161
133,296.0,2021,1134,Parc St-Paul (Marc-Sauvalle / Le Caron),45.461701,-73.584072
134,346.0,2021,1135,du Mont-Royal / Laurendeau,45.544471,-73.567251
135,1.0,2021,1136,Terminus Le Carrefour (Terry-Fox / Le Carrefour),45.56842,-73.746873
136,162.0,2021,1137,Métro Lionel-Groulx (St-Jacques / Atwater),45.483629,-73.579703
137,190.0,2021,1138,Maguire / St-Dominique,45.525268,-73.595237
138,254.0,2021,1139,CHU Ste-Justine (de la Côte Ste-Catherine / Hudson),45.503982,-73.62284
139,9.0,2021,1140,Parc St-Laurent (Dutrisac),45.525914,-73.689112
140,237.0,2021,120,Drolet / Faillon,45.539316,-73.620661
141,5907.0,2021,122,Lajeunesse / Jarry,45.543771,-73.628509
142,3232.0,2021,125,Cité des Arts du Cirque (Paul Boutet / des Regrattiers),45.559872,-73.615541
143,1806.0,2021,126,Rousselot / Jarry,45.550899,-73.62108
144,8087.0,2021,13,Métro de l'Église (Ross / de l'Église),45.462726,-73.565959
145,11881.0,2021,135,St-Alexandre / Ste-Catherine,45.505359,-73.567741
146,8645.0,2021,137,Jeanne-d'Arc / Ontario,45.549598,-73.541874
147,2626.0,2021,138,de la Salle / Ste-Catherine,45.549963,-73.534434
148,5745.0,2021,139,d'Orléans / Hochelaga,45.550768,-73.549427
149,2932.0,2021,140,Bennett / Ste-Catherine,45.553053,-73.532427
150,8734.0,2021,141,Marché Maisonneuve,45.553219,-73.539782
151,6337.0,2021,142,Ontario / Sicard,45.556262,-73.537441
152,5481.0,2021,143,de Ville-Marie / Ste-Catherine,45.557921,-73.529147
153,6411.0,2021,144,Ontario / Viau,45.559482,-73.535496
154,16750.0,2021,145,Gauthier / Papineau,45.529666,-73.567336
155,4763.0,2021,146,Gauthier / de Lorimier,45.531674,-73.565413
156,6787.0,2021,147,Gauthier / Parthenais,45.532926,-73.56378
157,9401.0,2021,148,de Bordeaux / Marie-Anne,45.533409,-73.570657
158,11799.0,2021,149,des Érables / Rachel,45.533547,-73.566867
159,5762.0,2021,150,Fullum / Sherbrooke,45.533924,-73.562425
160,9614.0,2021,151,Chapleau / Terrasse Mercure,45.536738,-73.565167
161,6729.0,2021,152,Bercy / Rachel,45.538403,-73.561964
162,8535.0,2021,153,Ste-Catherine / Dezery,45.539385,-73.541
163,10917.0,2021,154,Dézéry / Ontario,45.54111,-73.54755
164,8415.0,2021,155,Métro Préfontaine (Moreau / Hochelaga),45.54178,-73.555714
165,6715.0,2021,156,Valois / Ste-Catherine,45.54523,-73.53725
166,4441.0,2021,157,St-Germain / Hochelaga,45.543699,-73.553673
167,13451.0,2021,158,Aylwin / Ontario,45.544284,-73.54534
168,11784.0,2021,159,Métro Joliette  (Joliette / Hochelaga),45.546907,-73.551557
169,14898.0,2021,160,Valois / Ontario,45.547405,-73.544674
170,5519.0,2021,161,Nicolet / Sherbrooke,45.549695,-73.554647
171,3947.0,2021,162,Métro Assomption (Chauveau / de l'Assomption),45.569789,-73.548081
172,4520.0,2021,164,Métro Cadillac (de Cadillac / Sherbrooke),45.576963,-73.546836
173,1735.0,2021,165,Pierre-de-Coubertin / Langelier,45.580315,-73.535314
174,3480.0,2021,166,Métro Langelier (Langelier / Sherbrooke),45.582847,-73.542476
175,31543.0,2021,167,Boyer / du Mont-Royal,45.527432,-73.579917
176,19298.0,2021,168,Calixa-Lavallée / Rachel,45.527795,-73.571939
177,26077.0,2021,169,de Brébeuf / du Mont-Royal,45.529408,-73.578154
178,2629.0,2021,17,Tolhurst / Fleury,45.544149,-73.66752
179,9331.0,2021,170,de Lanaudière / Marie-Anne,45.529326,-73.574806
180,18225.0,2021,171,Marquette / Rachel,45.529802,-73.57029
181,448.0,2021,172,Garnier / du Mont-Royal,45.53092,-73.57674
182,36052.0,2021,173,Marquette / du Mont-Royal,45.53229,-73.57544
183,4625.0,2021,174,Cartier / Marie-Anne,45.532674,-73.571776
184,19770.0,2021,175,Chabot / du Mont-Royal,45.534185,-73.573589
185,6779.0,2021,176,Cartier / St-Joseph,45.535828,-73.57869
186,9019.0,2021,177,de Bordeaux / Gilford,45.53611,-73.576287
187,14700.0,2021,179,Messier / du Mont-Royal,45.537114,-73.571003
188,6619.0,2021,180,Laurier / de Bordeaux,45.537205,-73.579254
189,10283.0,2021,181,Cartier / Masson,45.538021,-73.583524
190,7277.0,2021,182,Chapleau / du Mont-Royal,45.53867,-73.56936
191,8397.0,2021,183,de Bordeaux / Masson,45.538984,-73.582445
192,6036.0,2021,184,Fullum / Gilford,45.539224,-73.573837
193,4670.0,2021,185,Parc des Rapides (LaSalle / 6e avenue),45.429471,-73.593099
194,2818.0,2021,186,LaSalle / Crawford,45.437914,-73.58274
195,4705.0,2021,187,Natatorium (LaSalle / Rolland),45.444547,-73.575091
196,3088.0,2021,188,Bibliothèque de Verdun (Brown / Bannantyne),45.448262,-73.577856
197,4122.0,2021,189,Beatty / de Verdun,45.45073,-73.572575
198,5561.0,2021,190,Métro Monk (Allard / Beaulieu),45.450851,-73.594027
199,2972.0,2021,191,Argyle / Bannantyne,45.453319,-73.576775
200,5375.0,2021,192,Argyle / de Verdun,45.453016,-73.571915
201,4587.0,2021,193,Hamilton / Jolicoeur,45.456355,-73.597557
202,3952.0,2021,194,5e avenue / Bannantyne,45.456365,-73.57614
203,5248.0,2021,196,4e avenue / de Verdun,45.456885,-73.572607
204,3674.0,2021,197,Dubois / Eadie,45.457597,-73.590529
205,6317.0,2021,198,2e avenue / Wellington,45.457893,-73.567528
206,9988.0,2021,199,Métro Verdun (Willibrord / de Verdun),45.459488,-73.572092
207,7240.0,2021,200,Gordon / Wellington,45.461078,-73.567307
208,5533.0,2021,201,Parc St-Paul (Le Caron / Marc-Sauvalle),45.461685,-73.584039
209,5024.0,2021,202,St-Patrick / Briand,45.463397,-73.596436
210,5557.0,2021,203,de l'Église / de Verdun,45.463001,-73.571569
211,5810.0,2021,204,de l'Église / Bannantyne,45.463254,-73.575879
212,7151.0,2021,205,Regina / de Verdun,45.467369,-73.570769
213,9115.0,2021,206,Métro Lasalle (de Rushbrooke / Caisse),45.470696,-73.565422
214,29762.0,2021,207,Métro Laurier (Rivard / Laurier),45.527616,-73.589115
215,7703.0,2021,208,St-Hubert / Laurier,45.52931,-73.588657
216,6035.0,2021,209,Hélène-Baillargeon / St-Denis,45.52974,-73.59527
217,5696.0,2021,21,St-Christophe / Cherrier,45.52029,-73.568119
218,17266.0,2021,211,de Mentana / Laurier,45.53045,-73.587638
219,31549.0,2021,214,Laurier / de Brébeuf,45.532514,-73.584811
220,7873.0,2021,215,Garnier / St-Joseph,45.532978,-73.581222
221,14919.0,2021,216,de Lanaudière / Laurier,45.533314,-73.583737
222,7599.0,2021,217,Gerry-Boulet / St-Grégoire,45.533735,-73.589307
223,19919.0,2021,218,Marquette / Laurier,45.53543,-73.5822
224,6330.0,2021,221,Métro Crémazie (Crémazie / Lajeunesse),45.546408,-73.638428
225,3235.0,2021,222,Clark / Fleury,45.547581,-73.665234
226,3941.0,2021,223,Émile-Journault / de Chateaubriand,45.549833,-73.640633
227,4018.0,2021,224,Basile-Routhier / Chabanel,45.549868,-73.647657
228,6626.0,2021,225,Métro Sauvé (Berri / Sauvé),45.550692,-73.656367
229,4476.0,2021,226,Jacques-Casault / Christophe-Colomb,45.552123,-73.630103
230,3822.0,2021,227,Complexe sportif Claude-Robillard,45.553262,-73.638615
231,2549.0,2021,228,Fleury / Lajeunesse,45.553579,-73.662083
232,4421.0,2021,229,Métro Henri-Bourassa (Henri-Bourassa / Millen),45.556751,-73.667162
233,3029.0,2021,230,Chambord / Fleury,45.559828,-73.658325
234,1697.0,2021,231,Hamel / Sauvé,45.560762,-73.650561
235,2217.0,2021,232,Francis / Fleury,45.563872,-73.655568
236,1978.0,2021,233,Marquette / Fleury,45.567352,-73.653787
237,9797.0,2021,234,de l'Hôtel-de-Ville / Sherbrooke,45.514565,-73.568407
238,23122.0,2021,235,Square St-Louis (du Square St-Louis / Laval),45.516091,-73.570129
239,24091.0,2021,236,Parc Jeanne-Mance (du Mont-Royal / du Parc),45.517,-73.589
240,16346.0,2021,237,de l'Esplanade / du Mont-Royal,45.518253,-73.588338
241,15247.0,2021,238,Villeneuve / du Parc,45.51829,-73.59235
242,22698.0,2021,239,Roy / St-Denis,45.51908,-73.5727
243,17697.0,2021,240,Berri / Cherrier,45.519088,-73.569509
244,19172.0,2021,241,Laval / Duluth,45.519216,-73.57718
245,36256.0,2021,242,du Mont-Royal / Clark,45.51941,-73.58685
246,13581.0,2021,243,Laval / Rachel,45.520179,-73.579424
247,12314.0,2021,244,Villeneuve / St-Urbain,45.520188,-73.590559
248,7785.0,2021,245,St-André / Cherrier,45.520524,-73.567697
249,4742.0,2021,246,Duluth / St-Denis,45.520604,-73.575984
250,16641.0,2021,247,Roy / St-André,45.521564,-73.570367
251,11321.0,2021,248,de Bullion / du Mont-Royal,45.521751,-73.585268
252,16787.0,2021,249,Rivard / Rachel,45.522278,-73.577591
253,15327.0,2021,250,Laval / du Mont-Royal,45.522365,-73.584146
254,14991.0,2021,251,St-Hubert / Duluth,45.522426,-73.574184
255,11920.0,2021,252,Berri / Rachel,45.522719,-73.577204
256,9526.0,2021,253,Beaudry / Sherbrooke,45.523035,-73.565395
257,13776.0,2021,254,du Parc-La Fontaine / Roy,45.522866,-73.568377
258,13096.0,2021,255,Villeneuve / de l'Hôtel-de-Ville,45.523544,-73.587332
259,48310.0,2021,256,Métro Mont-Royal (Rivard / du Mont-Royal),45.524673,-73.58255
260,10813.0,2021,257,Marie-Anne / St-Hubert,45.524683,-73.578897
261,13260.0,2021,258,du Parc-La Fontaine / Duluth,45.524518,-73.571977
262,15342.0,2021,259,Calixa-Lavallée / Sherbrooke,45.52479,-73.56545
263,13827.0,2021,260,de Mentana / Rachel,45.524963,-73.575559
264,19379.0,2021,261,Resther / du Mont-Royal,45.525628,-73.581775
265,10215.0,2021,262,de Mentana / Marie-Anne,45.526027,-73.577859
266,11185.0,2021,263,Métro Laurier (Berri / St-Joseph),45.527231,-73.586726
267,14318.0,2021,264,Pontiac / Gilford,45.527009,-73.585766
268,20298.0,2021,265,Émile-Duployé / Sherbrooke,45.527201,-73.564729
269,13785.0,2021,266,Marie-Anne / de la Roche,45.527758,-73.576185
270,12431.0,2021,267,Gilford / de Brébeuf,45.530816,-73.581626
271,8889.0,2021,268,Gilford / de Lanaudière,45.532008,-73.580444
272,409.0,2021,270,St-Hubert / René-Lévesque,45.514335,-73.556464
273,13532.0,2021,271,Sanguinet / Ontario,45.514767,-73.565491
274,8330.0,2021,272,Ste-Catherine / Labelle,45.515065,-73.55923
275,21156.0,2021,273,St-André / Ste-Catherine,45.516427,-73.558112
276,8757.0,2021,274,Gare d'autocars de Montréal (Berri / Ontario),45.516897,-73.563949
277,4019.0,2021,275,de Maisonneuve / Berri,45.51567,-73.561009
278,10834.0,2021,276,Wolfe / René-Lévesque,45.516818,-73.554188
279,4891.0,2021,277,St-André / Robin,45.518128,-73.561851
280,9085.0,2021,278,St-André / Ontario,45.51889,-73.56353
281,12313.0,2021,279,Montcalm / de Maisonneuve,45.519139,-73.557866
282,5583.0,2021,280,Plessis / René-Lévesque,45.519373,-73.551958
283,8138.0,2021,281,Wolfe / Robin,45.519581,-73.560116
284,12577.0,2021,283,Montcalm / Ontario,45.521081,-73.562275
285,5113.0,2021,284,Papineau / René-Lévesque,45.52114,-73.54926
286,7232.0,2021,285,Alexandre-DeSève / Ste-Catherine,45.52123,-73.553861
287,9161.0,2021,286,Logan / de Champlain,45.523194,-73.555843
288,9885.0,2021,288,Plessis / Ontario,45.523492,-73.56073
289,22400.0,2021,289,Métro Papineau (Cartier / Ste-Catherine),45.52353,-73.55199
290,11745.0,2021,290,de Champlain / Ontario,45.525109,-73.560206
291,4229.0,2021,292,Jean Langlois / Fullum,45.5265,-73.545753
292,15863.0,2021,293,Dorion / Ontario,45.526991,-73.558212
293,7298.0,2021,294,Logan / Fullum,45.528366,-73.551171
294,6867.0,2021,295,Poupart / Ste-Catherine,45.529002,-73.546199
295,8191.0,2021,296,Larivière / de Lorimier,45.529134,-73.559234
296,10453.0,2021,297,de Bordeaux / Sherbrooke,45.529971,-73.563053
297,3080.0,2021,298,Logan / d'Iberville,45.53057,-73.54913
298,5685.0,2021,299,Poupart / Ontario,45.531939,-73.553439
299,10622.0,2021,302,Métro Frontenac (Ontario / du Havre),45.533706,-73.552179
300,5997.0,2021,303,Hochelaga / Chapleau,45.534453,-73.559652
301,7455.0,2021,304,du Havre / de Rouen,45.534563,-73.554787
302,4452.0,2021,305,Hogan / Ontario,45.535295,-73.55116
303,5838.0,2021,306,Sherbrooke / Frontenac,45.5367,-73.56081
304,6272.0,2021,307,Wurtele / de Rouen,45.537628,-73.553394
305,21386.0,2021,309,University / Milton,45.506511,-73.576669
306,3440.0,2021,31,Lespérance / de Rouen,45.538839,-73.552779
307,14378.0,2021,310,University / Prince-Arthur,45.507402,-73.578444
308,20430.0,2021,311,Milton / Durocher,45.508141,-73.57493
309,13985.0,2021,312,Aylmer / Prince-Arthur,45.508567,-73.577698
310,15552.0,2021,313,Milton / du Parc,45.509361,-73.573864
311,14081.0,2021,314,Hutchison / Prince-Arthur,45.509759,-73.576107
312,20015.0,2021,315,Ste-Famille / Sherbrooke,45.510072,-73.570752
313,29076.0,2021,316,Prince-Arthur / du Parc,45.51059,-73.57547
314,17500.0,2021,317,Métro St-Laurent (de Maisonneuve / St-Laurent),45.51066,-73.56497
315,13732.0,2021,318,Hutchison / des Pins,45.51069,-73.57805
316,8466.0,2021,321,de l'Hôtel-de-Ville / Ste-Catherine,45.51166,-73.562136
317,22675.0,2021,322,Milton / Clark,45.512541,-73.570677
318,11437.0,2021,323,Prince-Arthur / St-Urbain,45.512587,-73.573739
319,2069.0,2021,324,Sanguinet / Ste-Catherine,45.512797,-73.561463
320,9432.0,2021,325,Ste-Famille / des Pins,45.512832,-73.576888
321,22320.0,2021,326,Clark / Prince-Arthur,45.513303,-73.572961
322,10254.0,2021,327,Sanguinet / de Maisonneuve,45.513405,-73.562594
323,17078.0,2021,328,Guilbault / Clark,45.514108,-73.57523
324,10671.0,2021,329,Metcalfe / St-Catherine,45.500832,-73.572459
325,32159.0,2021,330,Parc Jeanne Mance (monument sir George-Etienne Cartier),45.51484,-73.584779
326,18739.0,2021,331,Duluth / de l'Esplanade,45.515092,-73.581142
327,22232.0,2021,332,BAnQ (Berri / de Maisonneuve),45.515299,-73.561273
328,10483.0,2021,333,Parc de Bullion (de Bullion / Prince-Arthur),45.515604,-73.572135
329,5335.0,2021,334,Roy / St-Laurent,45.515616,-73.575808
330,22539.0,2021,336,Duluth / St-Laurent,45.516876,-73.57946
331,12458.0,2021,337,de l'Hôtel-de-Ville / Roy,45.517401,-73.574605
332,21260.0,2021,338,Clark / Rachel,45.517354,-73.582129
333,22951.0,2021,339,St-Dominique / Rachel,45.518593,-73.581566
334,16625.0,2021,340,Vallières / St-Laurent,45.518967,-73.583616
335,5976.0,2021,341,U. Concordia - Campus Loyola (Sherbrooke / West Broadway),45.457509,-73.639485
336,3865.0,2021,342,Park Row O / Sherbrooke,45.460729,-73.634073
337,4535.0,2021,343,Benny / Sherbrooke,45.464877,-73.626597
338,5523.0,2021,344,Grand Boulevard / Sherbrooke,45.466569,-73.623295
339,4001.0,2021,346,de la Côte St-Antoine / Royal,45.468927,-73.61987
340,4494.0,2021,347,de Melrose / Sherbrooke,45.46982,-73.616961
341,2735.0,2021,348,de Hampton / de Monkland,45.471179,-73.627002
342,7964.0,2021,349,Marcil / Sherbrooke,45.471743,-73.613924
343,5348.0,2021,350,Harvard / de Monkland,45.474565,-73.624036
344,5850.0,2021,351,de Monkland / Girouard,45.477107,-73.621438
345,3366.0,2021,352,Notre-Dame-de-Grâce / Décarie,45.477353,-73.615372
346,6478.0,2021,354,Métro Snowdon (de Westbury / Queen-Mary),45.485385,-73.628142
347,2857.0,2021,355,Lionel-Groulx / George-Vanier,45.486219,-73.573747
348,3120.0,2021,356,Canning / Notre-Dame,45.486319,-73.570233
349,8370.0,2021,357,des Seigneurs / Notre-Dame,45.487723,-73.569083
350,6143.0,2021,358,Métro Georges-Vanier (St-Antoine / Canning),45.4891,-73.57656
351,30565.0,2021,359,Métro Atwater (Atwater / Ste-Catherine),45.489476,-73.584566
352,5536.0,2021,36,St-Cuthbert / St-Urbain,45.514773,-73.578312
353,5283.0,2021,360,Atwater / Sherbrooke,45.491226,-73.58763
354,3674.0,2021,361,Beaucourt / de la Côte-Ste-Catherine,45.491513,-73.633649
355,17281.0,2021,362,Chomedey / de Maisonneuve,45.4918,-73.584006
356,12375.0,2021,363,Ste-Catherine / St-Marc,45.492897,-73.580294
357,5385.0,2021,364,Lincoln / du Fort,45.493034,-73.583836
358,17477.0,2021,365,St-Mathieu / Ste-Catherine,45.49368,-73.579146
359,5542.0,2021,366,St-Marc / Sherbrooke,45.494514,-73.583368
360,2464.0,2021,367,de Kent / Victoria,45.494564,-73.638702
361,15527.0,2021,368,Jean-Brillant / de la Côte-des-Neiges,45.495415,-73.622341
362,6132.0,2021,369,Hôpital général juif (de la Côte Ste-Catherine / Légaré),45.496302,-73.629822
363,19067.0,2021,370,Mackay / de Maisonneuve,45.49683,-73.57913
364,11058.0,2021,371,Swail / Decelles,45.497055,-73.618652
365,6420.0,2021,372,Ellendale / de la Côte-des-Neiges,45.499757,-73.629298
366,9262.0,2021,373,de Kent / de la Côte-des-Neiges,45.501449,-73.633051
367,8028.0,2021,374,de Soissons / de Darlington,45.506899,-73.623526
368,7564.0,2021,375,Parc Kent (de Kent / Hudson),45.505721,-73.629459
369,13100.0,2021,376,Édouard-Montpetit / de Stirling,45.50723,-73.615085
370,8534.0,2021,377,Wilderton  / Van Horne,45.510142,-73.624752
371,11551.0,2021,378,Tupper / du Fort,45.49123,-73.580782
372,11964.0,2021,379,St-Mathieu / Sherbrooke,45.495789,-73.582596
373,17054.0,2021,38,Métro Vendôme (de Marlowe / de Maisonneuve),45.473868,-73.604538
374,21201.0,2021,381,Crescent / de Maisonneuve,45.498112,-73.577615
375,12372.0,2021,382,Drummond / Ste-Catherine,45.498639,-73.574227
376,5317.0,2021,383,de la Cathédrale / René-Lévesque,45.499191,-73.569421
377,6382.0,2021,384,Cypress / Peel,45.499325,-73.571768
378,11997.0,2021,385,Drummond / de Maisonneuve,45.49947,-73.57591
379,9175.0,2021,386,de la Montagne / Sherbrooke,45.499745,-73.579034
380,688.0,2021,387,Notre-Dame / Gauvin,45.500105,-73.560199
381,21863.0,2021,388,Métro Peel (de Maisonneuve / Stanley),45.50038,-73.57507
382,5106.0,2021,389,de la Gauchetière / Robert-Bourassa,45.500606,-73.565448
383,10953.0,2021,392,Stanley / Sherbrooke,45.501041,-73.577178
384,5384.0,2021,393,Metcalfe / de Maisonneuve,45.501715,-73.57413
385,8963.0,2021,394,St-Nicolas / Place d'Youville,45.501967,-73.555153
386,11941.0,2021,395,Square Victoria (Viger / du Square-Victoria),45.50206,-73.56295
387,5851.0,2021,396,Union / René-Lévesque,45.50235,-73.566583
388,7739.0,2021,397,St-Jacques / St-Pierre,45.502786,-73.559134
389,20375.0,2021,398,McTavish / Sherbrooke,45.502813,-73.576024
390,11408.0,2021,400,du President-Kennedy / Union,45.505011,-73.572028
391,5219.0,2021,401,St-Antoine / St-François-Xavier,45.504591,-73.559188
392,5347.0,2021,403,Viger / Chenneville,45.505312,-73.560891
393,7204.0,2021,404,Métro Place-d'Armes (Viger / St-Urbain),45.50623,-73.55976
394,7291.0,2021,405,City Councillors / du President-Kennedy,45.506251,-73.571391
395,6163.0,2021,406,St-Jacques / St-Laurent,45.506421,-73.556466
396,7460.0,2021,407,St-Urbain / de la Gauchetière,45.507078,-73.561395
397,5126.0,2021,408,Notre-Dame / St-Gabriel,45.507144,-73.555119
398,4652.0,2021,409,du Champ-de-Mars / Gosford,45.509655,-73.554009
399,8916.0,2021,410,Métro Champ-de-Mars (Viger / Sanguinet),45.510351,-73.556508
400,5686.0,2021,411,St-André / St-Antoine,45.514114,-73.552645
401,5374.0,2021,412,Ottawa / William,45.489727,-73.564063
402,9916.0,2021,413,Joseph-Manseau / René-Lévesque,45.491687,-73.576767
403,11146.0,2021,414,Notre-Dame / de la Montagne,45.493029,-73.564818
404,4713.0,2021,415,Lucien L'Allier / St-Jacques,45.493569,-73.568576
405,6150.0,2021,418,Métro Lucien-L'Allier  (Lucien l'Allier / Argyle),45.494872,-73.571124
406,5266.0,2021,419,Duke / Brennan,45.495581,-73.553711
407,11647.0,2021,420,Bishop / Ste-Catherine,45.496583,-73.576502
408,16547.0,2021,421,de la Commune / King,45.497515,-73.552571
409,9231.0,2021,422,William / St-Henri,45.498919,-73.557254
410,6574.0,2021,423,Queen / Wellington,45.497605,-73.55535
411,12222.0,2021,425,Labadie / du Parc,45.519895,-73.596827
412,17862.0,2021,427,de l'Esplanade / Fairmount,45.521496,-73.596827
413,18087.0,2021,428,Jeanne-Mance / St-Viateur,45.523027,-73.60184
414,13624.0,2021,429,Waverly / St-Viateur,45.523856,-73.600127
415,16660.0,2021,43,Métro Université de Montréal (Édouard-Montpetit / Louis-Collin),45.50367,-73.61848
416,7150.0,2021,430,de Bullion / St-Joseph,45.524037,-73.590143
417,17063.0,2021,431,Bernard / Jeanne-Mance,45.524287,-73.604973
418,14457.0,2021,432,Maguire / St-Laurent,45.524628,-73.595811
419,4630.0,2021,433,Hutchison / Van Horne,45.524942,-73.610606
420,7572.0,2021,434,de Gaspé / Fairmount,45.525648,-73.592928
421,464.0,2021,435,St-Viateur / St-Laurent,45.525931,-73.598839
422,17215.0,2021,436,Drolet / Laurier,45.526252,-73.589758
423,9647.0,2021,437,St-Dominique / St-Viateur,45.526557,-73.598276
424,6988.0,2021,438,Maguire / Henri-Julien,45.527041,-73.593471
425,4944.0,2021,439,Waverly / Van Horne,45.527363,-73.607723
426,3779.0,2021,440,Casgrain / St-Viateur,45.527513,-73.598791
427,4603.0,2021,441,de Gaspé / St-Viateur,45.527748,-73.597439
428,4966.0,2021,442,Henri-Julien / du Carmel,45.527839,-73.594821
429,7155.0,2021,443,St-Dominique / Bernard,45.527933,-73.601223
430,2768.0,2021,444,Berlioz / de l'Île des Soeurs,45.459986,-73.543956
431,5048.0,2021,445,Place du Commerce,45.46714,-73.54259
432,14634.0,2021,447,Léa-Roback / Sir-Georges-Etienne-Cartier,45.471669,-73.582644
433,2310.0,2021,448,Jacques-Le Ber / de la Pointe Nord,45.472503,-73.539285
434,10755.0,2021,449,Ste-Émilie / Sir-Georges-Etienne-Cartier,45.472668,-73.58539
435,6205.0,2021,450,Ryde / Charlevoix,45.475743,-73.564601
436,9217.0,2021,451,Métro Place St-Henri (St-Ferdinand / St-Jacques),45.477249,-73.587238
437,4971.0,2021,452,Fortune / Wellington,45.477923,-73.559038
438,10498.0,2021,453,Métro Charlevoix (Centre / Charlevoix),45.478228,-73.569651
439,5930.0,2021,455,Bourgeoys / Favard,45.47993,-73.555921
440,5827.0,2021,456,Ropery / Augustin-Cantin,45.480914,-73.56846
441,9444.0,2021,459,Duvernay / Charlevoix,45.482098,-73.574876
442,4290.0,2021,461,Shearer / Centre,45.483006,-73.562187
443,4365.0,2021,462,Charlevoix / Lionel-Groulx,45.483928,-73.577312
444,6320.0,2021,463,Augustin-Cantin / Shearer,45.484018,-73.563437
445,8245.0,2021,464,Richardson / de Montmorency,45.48498,-73.560333
446,3584.0,2021,465,Georges-Vanier / Notre-Dame,45.485048,-73.571963
447,3465.0,2021,466,Quesnel / Vinet,45.485889,-73.577514
448,9276.0,2021,467,Guy / Notre-Dame,45.490042,-73.567111
449,17692.0,2021,468,Young / Wellington,45.492825,-73.557978
450,22802.0,2021,469,de la Commune / St-Sulpice,45.504242,-73.55347
451,24115.0,2021,47,Métro Guy-Concordia (Guy / St-Catherine),45.495045,-73.57783
452,25258.0,2021,470,de la Commune / Place Jacques-Cartier,45.50761,-73.551836
453,17855.0,2021,471,de la Commune / Berri,45.51086,-73.54983
454,18951.0,2021,472,Rachel / de Brébeuf,45.52689,-73.57264
455,4627.0,2021,474,Métro Acadie (de l'Acadie / Beaumont),45.523575,-73.623443
456,1468.0,2021,477,Métro de la Savane (de Sorel / Bougainville),45.500451,-73.661428
457,5454.0,2021,478,Dollard / Bernard,45.516783,-73.611423
458,4505.0,2021,479,Casgrain / Maguire,45.525933,-73.595253
459,5002.0,2021,480,Jeanne-Mance / Beaubien,45.52765,-73.6123
460,953.0,2021,481,Alfred Laliberté / de Poutrincourt,45.53308,-73.694597
461,5349.0,2021,482,Chabanel / du Parc,45.538308,-73.654884
462,2455.0,2021,483,Gare Bois-de-Boulogne,45.539726,-73.677165
463,1504.0,2021,484,Laforest / Dudemaine,45.539806,-73.687266
464,3059.0,2021,485,Chabanel / de l'Esplanade,45.540686,-73.653376
465,2847.0,2021,486,Papineau / Émile-Journault,45.559884,-73.633568
466,4264.0,2021,487,16e avenue / Jean-Talon,45.56244,-73.595333
467,7633.0,2021,488,Rosemont / Viau,45.56833,-73.566663
468,1001.0,2021,489,de St-Firmin / Fleury,45.570657,-73.651842
469,2582.0,2021,490,41e avenue / Rosemont,45.57179,-73.564315
470,779.0,2021,491,Fleury / André-Jobin,45.576,-73.646765
471,2256.0,2021,492,de Lisieux / Jean-Talon,45.579349,-73.581681
472,1008.0,2021,493,de Belleville / Fleury,45.58116,-73.641243
473,1760.0,2021,495,Dumesnil / Bélanger,45.587778,-73.569354
474,796.0,2021,496,des Récollets / Martial,45.590892,-73.640617
475,1509.0,2021,497,François-Boivin / Bélanger,45.592596,-73.566175
476,1247.0,2021,498,Notre-Dame / Liébert,45.592803,-73.510466
477,1703.0,2021,499,Liébert / Hochelaga,45.595875,-73.523528
478,892.0,2021,500,Parc d'Antioche (Place d'Antioche / St-Zotique),45.595352,-73.55859
479,2107.0,2021,501,Bélanger / des Galeries d'Anjou,45.597221,-73.56279
480,5609.0,2021,502,William / Robert-Bourassa,45.497165,-73.55933
481,2607.0,2021,504,Gagne / LaSalle,45.422451,-73.601194
482,734.0,2021,505,Parc Highlands (Highlands / LaSalle),45.426124,-73.657416
483,1863.0,2021,506,Cégep André-Laurendeau,45.435665,-73.605652
484,2115.0,2021,507,Newman / Senkus,45.444043,-73.613752
485,4523.0,2021,508,LaSalle / Godin,45.446934,-73.572199
486,2681.0,2021,509,Elgar / de l'Île-des-Sœurs,45.456823,-73.546804
487,6244.0,2021,510,Hickson / Wellington,45.464892,-73.566998
488,3466.0,2021,511,Grand Boulevard / de Terrebonne,45.470544,-73.63168
489,6214.0,2021,512,Turgeon / Notre-Dame,45.478888,-73.581989
490,5618.0,2021,513,St-Jacques / des Seigneurs,45.489186,-73.5719
491,19249.0,2021,514,des Bassins / du Séminaire,45.490452,-73.560172
492,2574.0,2021,515,Parc Plage,45.502828,-73.527793
493,2350.0,2021,516,Lusignan / St-Jacques,45.492222,-73.569348
494,313.0,2021,517,Bibliothèque du Boisé (Thimens / Todd),45.504635,-73.704432
495,760.0,2021,519,Beaudet / Marcel-Laurin,45.506843,-73.681757
496,2583.0,2021,520,Métro du Collège (Cartier / Décarie),45.508439,-73.672965
497,968.0,2021,521,Thimens / Alexis-Nihon,45.508978,-73.698564
498,2132.0,2021,522,de l'Eglise / St-Germain,45.512559,-73.677011
499,707.0,2021,523,Ste-Croix / Tassé,45.519492,-73.685104
500,1105.0,2021,524,O'Brien / Poirier,45.52246,-73.691564
501,2185.0,2021,525,Casino de Montréal,45.506373,-73.524577
502,2498.0,2021,526,Quai de la navette fluviale,45.513741,-73.538382
503,3068.0,2021,527,Métro Longueuil - Université de Sherbrooke,45.523319,-73.520127
504,499.0,2021,528,Place Longueuil,45.52841,-73.517166
505,432.0,2021,529,St-Charles / Montarville,45.533682,-73.515261
506,811.0,2021,530,Collège Édouard-Montpetit (de Gentilly / de Normandie),45.537226,-73.495067
507,613.0,2021,531,St-Charles / Grant,45.539824,-73.508752
508,18563.0,2021,532,Marché Atwater,45.480208,-73.577599
509,6721.0,2021,533,Atwater / Greene,45.480495,-73.577827
510,15648.0,2021,537,Villeneuve / St-Laurent,45.521342,-73.589419
511,9501.0,2021,538,Dollard / Van Horne,45.519153,-73.616469
512,2943.0,2021,540,Stuart / St-Viateur,45.516079,-73.607798
513,4202.0,2021,541,Parc Outremont (Bloomfield / Elmwood),45.518309,-73.603286
514,3126.0,2021,542,Parc Joyce (Rockland / Lajoie),45.515617,-73.614991
515,3855.0,2021,543,Davaar / de la Côte-Ste-Catherine,45.514379,-73.610871
516,15079.0,2021,544,Bloomfield / Bernard,45.520688,-73.608428
517,7235.0,2021,546,Bloomfield / Van Horne,45.522586,-73.612658
518,8277.0,2021,547,Métro Édouard-Montpetit (du Mont-Royal / Vincent-d'Indy),45.510086,-73.611429
519,5472.0,2021,548,Waverly / St-Zotique,45.530505,-73.614708
520,6545.0,2021,549,du Mont-Royal / Augustin-Frigon,45.543763,-73.56772
521,8903.0,2021,550,Drolet / Beaubien,45.533348,-73.605834
522,19359.0,2021,551,Métro Beaubien (de Chateaubriand / Beaubien),45.53536,-73.603635
523,9518.0,2021,552,de Bellechasse / de St-Vallier,45.53341,-73.601124
524,18746.0,2021,553,Boyer / Beaubien,45.537041,-73.602026
525,7173.0,2021,554,Chambord / Beaubien,45.539932,-73.599343
526,4439.0,2021,555,Centre ÉPIC (St-Zotique / 40e avenue),45.574147,-73.574621
527,8501.0,2021,556,Chabot / Beaubien,45.544376,-73.595645
528,6558.0,2021,557,Louis-Hébert / de Bellechasse,45.546661,-73.588684
529,8400.0,2021,558,Molson / Beaubien,45.549686,-73.591155
530,7485.0,2021,559,Beaubien / 8e avenue,45.553457,-73.587842
531,6128.0,2021,560,16e avenue / Beaubien,45.558281,-73.583159
532,4476.0,2021,561,29e avenue / St-Zotique,45.567766,-73.579688
533,9745.0,2021,562,de la Roche /  de Bellechasse,45.537159,-73.597476
534,7920.0,2021,563,Chabot / de Bellechasse,45.54257,-73.592144
535,10039.0,2021,564,Louis-Hébert / Beaubien,45.548186,-73.59201
536,6025.0,2021,565,Alexandra / Jean-Talon,45.532331,-73.620187
537,14106.0,2021,566,Marché Jean-Talon (Henri-Julien / Jean-Talon),45.536785,-73.614888
538,15085.0,2021,567,Bélanger / St-Denis,45.53696,-73.61199
539,9543.0,2021,568,de la Roche / Bélanger,45.54167,-73.607604
540,12768.0,2021,569,Boyer / Bélanger,45.54006,-73.60897
541,7956.0,2021,570,de Lanaudière / Bélanger,45.543651,-73.60565
542,6269.0,2021,571,Cartier / Bélanger,45.546797,-73.602664
543,3308.0,2021,572,des Érables / Bélanger,45.549121,-73.600874
544,17591.0,2021,573,Parc Père-Marquette (Chambord / Rosemont),45.537088,-73.593219
545,9635.0,2021,574,Boyer / Jean-Talon,45.541586,-73.612481
546,8113.0,2021,575,Louis-Hémon / Rosemont,45.544599,-73.588223
547,6825.0,2021,576,1ère avenue / Rosemont,45.5478,-73.584867
548,5067.0,2021,577,5e avenue / Rosemont,45.5499,-73.583084
549,7779.0,2021,578,Marquette / des Carrières,45.538799,-73.5887
550,2810.0,2021,579,Dandurand / de Lorimier,45.540881,-73.584157
551,7925.0,2021,580,Cartier / Dandurand,45.539236,-73.585946
552,3763.0,2021,581,de Gaspé / Marmier,45.529686,-73.601728
553,7311.0,2021,582,Fabre / St-Zotique,45.543452,-73.60101
554,5917.0,2021,583,de Bordeaux / St-Zotique,45.546539,-73.598665
555,13410.0,2021,584,Marmier / St-Denis,45.530871,-73.598345
556,3989.0,2021,585,Louis-Hébert / St-Zotique,45.55001,-73.59576
557,6789.0,2021,586,Fabre / Beaubien,45.54206,-73.597873
558,4015.0,2021,588,Parc du Pélican (2e avenue / St-Joseph),45.544513,-73.571564
559,18410.0,2021,589,St-Dominique / St-Zotique,45.532265,-73.611063
560,6219.0,2021,590,de Gaspé / Dante,45.534298,-73.612172
561,8048.0,2021,591,Mozart / St-Laurent,45.53318,-73.61544
562,14554.0,2021,592,Boyer / St-Zotique,45.53848,-73.60556
563,7790.0,2021,593,de St-Vallier / St-Zotique,45.536261,-73.607546
564,8216.0,2021,594,Drolet / St-Zotique,45.534882,-73.609412
565,4014.0,2021,595,28e avenue / Rosemont,45.564353,-73.571244
566,10877.0,2021,596,Casgrain / Mozart,45.534727,-73.614793
567,4835.0,2021,597,12e avenue / St-Zotique,45.556867,-73.589307
568,4391.0,2021,598,1ère  avenue / St-Zotique,45.551937,-73.593928
569,1586.0,2021,60,Durocher / Van Horne,45.524394,-73.611423
570,16967.0,2021,600,Jardin Botanique (Pie-IX / Sherbrooke),45.554947,-73.555295
571,7551.0,2021,601,18e avenue / Rosemont,45.557896,-73.576529
572,5526.0,2021,602,Hôpital Maisonneuve-Rosemont (Rosemont / Chatelain),45.575707,-73.561562
573,3389.0,2021,604,35e avenue / Beaubien,45.570081,-73.573047
574,7206.0,2021,606,de Chambly / Rachel,45.549911,-73.558263
575,14472.0,2021,607,10e avenue / Masson,45.550306,-73.573353
576,8229.0,2021,608,d'Orléans / Masson,45.557192,-73.569847
577,9856.0,2021,610,1ère avenue / Masson,45.5452,-73.576451
578,9411.0,2021,611,15e avenue / Masson,45.553898,-73.571387
579,5333.0,2021,613,Parc J.-Arthur-Champagne (de Chambly / du Mont-Royal),45.551584,-73.561916
580,7857.0,2021,614,Omer-Lavallée / du Midway,45.545776,-73.562175
581,6709.0,2021,616,Cartier / Rosemont,45.541247,-73.591044
582,8114.0,2021,619,St-Urbain / Beaubien,45.52951,-73.61068
583,4026.0,2021,620,Ernest-Gendreau / du Mont-Royal,45.549714,-73.563848
584,11411.0,2021,622,Place Émilie-Gamelin (St-Hubert / de Maisonneuve),45.515901,-73.559948
585,9307.0,2021,623,de Maisonneuve / Mansfield (nord),45.502311,-73.573364
586,5073.0,2021,624,St-Jacques / McGill,45.501441,-73.560144
587,6419.0,2021,625,St-Urbain / René-Lévesque,45.507838,-73.563136
588,15893.0,2021,626,de Maisonneuve / Mansfield (sud),45.502145,-73.573427
589,7044.0,2021,627,Durocher / Bernard,45.522225,-73.606687
590,2985.0,2021,628,La Ronde,45.521565,-73.535332
591,8806.0,2021,629,Aylmer / Sherbrooke,45.506587,-73.573299
592,9407.0,2021,630,Querbes / Laurier,45.51754,-73.597832
593,4881.0,2021,631,26e avenue / Beaubien,45.564944,-73.577639
594,2725.0,2021,633,Jogues / Allard,45.45002,-73.600306
595,237.0,2021,634,Mackay / Ste-Catherine,45.495709,-73.576952
596,6628.0,2021,635,19e avenue / St-Zotique,45.561594,-73.585643
597,12669.0,2021,636,de Maisonneuve / Greene,45.486971,-73.589293
598,5776.0,2021,637,Hillside / Ste-Catherine,45.482826,-73.590843
599,9267.0,2021,638,Victoria / de Maisonneuve,45.477429,-73.600169
600,7201.0,2021,639,Victoria Hall,45.481291,-73.60033
601,2100.0,2021,641,2e avenue / Jean-Rivard,45.562509,-73.61656
602,8324.0,2021,642,Henri-Julien / de Castelnau,45.537891,-73.618215
603,4831.0,2021,644,Chambord / Jean-Talon,45.544846,-73.610536
604,4263.0,2021,645,Louis-Hébert / Bélanger,45.551585,-73.599165
605,16127.0,2021,646,Gary-Carter / St-Laurent,45.5359,-73.622443
606,5390.0,2021,647,St-Dominique / Gounod,45.538738,-73.628022
607,198.0,2021,648,Guizot / St-Laurent,45.539663,-73.634475
608,2114.0,2021,65,Bel Air / St-Antoine,45.482778,-73.584621
609,5525.0,2021,650,Drolet / Gounod,45.540951,-73.626375
610,5343.0,2021,651,de Gaspé / Jarry,45.54078,-73.630401
611,5436.0,2021,652,Guizot / St-Denis,45.543424,-73.632462
612,4480.0,2021,653,de Gaspé / de Liège,45.542485,-73.636342
613,6999.0,2021,654,du Rosaire / St-Hubert,45.544819,-73.62151
614,4658.0,2021,656,de Chateaubriand / Jarry,45.545955,-73.626992
615,5519.0,2021,657,de la Roche / Everett,45.544867,-73.614841
616,6654.0,2021,658,Marquette / Villeray,45.550684,-73.615293
617,7682.0,2021,659,St-Dominique / Jean-Talon,45.535248,-73.617564
618,2561.0,2021,660,Louis-Hémon / Villeray,45.554961,-73.610737
619,5377.0,2021,661,Métro St-Michel (Shaughnessy / St-Michel),45.559199,-73.599658
620,3825.0,2021,663,d'Outremont / Ogilvy,45.52687,-73.626723
621,7176.0,2021,664,de Normanville / Villeray,45.54717,-73.618041
622,8332.0,2021,665,Lajeunesse / Villeray,45.542119,-73.622547
623,2529.0,2021,666,Villeray / St-Michel,45.561059,-73.603967
624,3161.0,2021,668,Marquette / Jean-Talon,45.547408,-73.607669
625,5506.0,2021,669,de Bordeaux / Jean-Talon,45.549755,-73.605566
626,5388.0,2021,671,Ball / Querbes,45.531177,-73.632136
627,5008.0,2021,674,Drolet / Jarry,45.541955,-73.629942
628,4223.0,2021,675,Clark / de Liège,45.539984,-73.638135
629,14197.0,2021,676,Boyer / Rosemont,45.534136,-73.595478
630,14868.0,2021,677,Bernard / St-Urbain,45.526267,-73.603191
631,1376.0,2021,678,CIUSSS (du Trianon / Pierre-de-Coubertin),45.587531,-73.531907
632,1142.0,2021,680,Hôpital Santa Cabrini (St-Zotique / Jeanne-Jugan),45.579325,-73.570504
633,15036.0,2021,681,St-Denis / René-Lévesque,45.512871,-73.558466
634,9154.0,2021,682,du Président-Kennedy / Jeanne-Mance,45.508205,-73.568814
635,10782.0,2021,684,Jeanne-Mance / René-Lévesque,45.506371,-73.564201
636,4533.0,2021,686,Desjardins / Ontario,45.551192,-73.540873
637,6483.0,2021,687,Metcalfe / du Square-Dorchester,45.500208,-73.571138
638,9978.0,2021,688,Métro Viau (Pierre-de-Coubertin / Viau),45.561783,-73.546611
639,9722.0,2021,689,de Mentana / Gilford,45.528724,-73.583859
640,4088.0,2021,690,St-Maurice / Robert-Bourassa,45.498578,-73.560242
641,3307.0,2021,691,Métro Honoré-Beaugrand (Sherbrooke / Honoré-Beaugrand),45.596797,-73.535179
642,3199.0,2021,692,Paré / Mountain Sights,45.4981,-73.652942
643,3105.0,2021,693,Métro Radisson (Sherbrooke / des Groseilliers),45.589175,-73.539656
644,2681.0,2021,694,Graham / Brookfield,45.520222,-73.629856
645,4341.0,2021,696,Hutchison / Beaubien,45.526058,-73.612969
646,349.0,2021,699,St-Jean-Baptiste / René-Lévesque,45.641557,-73.500375
647,292.0,2021,701,du Tricentenaire / Prince-Albert,45.649546,-73.491916
648,5335.0,2021,702,de Maisonneuve / Aylmer (est),45.505386,-73.570432
649,516.0,2021,703,du Souvenir / Chomedey,45.551886,-73.74444
650,973.0,2021,704,Métro Montmorency,45.558109,-73.719598
651,500.0,2021,705,Parc St-Claude (7e avenue / 8e rue),45.562668,-73.692362
652,1062.0,2021,706,Métro Cartier,45.56003,-73.681336
653,11526.0,2021,749,Atateken / du Square Amherst,45.520634,-73.563906
654,2511.0,2021,75,St-Joseph / 8e avenue Lachine,45.43155,-73.67112
655,18355.0,2021,750,Métro Sherbrooke (de Rigaud / St-Denis),45.517999,-73.568184
656,4135.0,2021,751,Bourget / St-Jacques,45.480846,-73.583862
657,8051.0,2021,752,Métro Bonaventure (de la Gauchetière / de la Cathédrale),45.498312,-73.567256
658,3564.0,2021,753,Mansfield / Ste-Catherine,45.501399,-73.571786
659,10485.0,2021,756,Notre-Dame / Jean-d'Estrées,45.49426,-73.563818
660,10737.0,2021,757,de Gaspé / Beaubien,45.531958,-73.607001
661,20242.0,2021,758,des Érables / du Mont-Royal,45.535854,-73.572055
662,2231.0,2021,76,St-Joseph / 34e avenue Lachine,45.433251,-73.693962
663,12783.0,2021,760,St-Dominique / de Bellechasse,45.529504,-73.604865
664,12599.0,2021,761,St-Dominique / du Mont-Royal,45.52056,-73.58582
665,21024.0,2021,762,St-Dominique / Napoléon,45.516664,-73.57722
666,8851.0,2021,763,Métro Jean-Talon (Berri / Jean-Talon),45.539,-73.614251
667,26016.0,2021,764,St-Dominique / Laurier,45.523615,-73.592457
668,7346.0,2021,765,Faillon / St-Denis,45.539864,-73.620313
669,7807.0,2021,767,de Gaspé / Villeray,45.538887,-73.623907
670,4539.0,2021,769,Grand Trunk / d'Hibernia,45.47968,-73.56385
671,6183.0,2021,770,Rivier / Davidson,45.546115,-73.557093
672,10166.0,2021,771,Métro Parc  (Hutchison / Ogilvy),45.530351,-73.624392
673,4837.0,2021,772,de la Salle / Hochelaga,45.554152,-73.547494
674,3080.0,2021,774,Parc St-Henri (Laporte / Guay),45.480134,-73.585908
675,5487.0,2021,775,St-Hubert / St-Joseph,45.528088,-73.585863
676,4219.0,2021,776,de la Côte St-Antoine / Argyle,45.486241,-73.595728
677,3854.0,2021,778,Métro Jolicoeur (de Sève / Drake),45.456086,-73.581937
678,9923.0,2021,779,de Bleury / de Maisonneuve,45.507097,-73.568442
679,553.0,2021,78,8e avenue / Notre-Dame Lachine,45.434898,-73.670819
680,2139.0,2021,780,LaSalle / 80e avenue,45.415769,-73.637924
681,2389.0,2021,781,Kirkfield / de Chambois,45.512933,-73.63389
682,3580.0,2021,782,Garnier / Everett,45.547625,-73.612025
683,301.0,2021,783,8e avenue / Jarry,45.56169,-73.610512
684,8273.0,2021,784,de la Côte St-Paul / St-Ambroise,45.467666,-73.593918
685,1969.0,2021,785,des Jockeys / Décarie,45.494044,-73.654495
686,2086.0,2021,786,LaSalle / 37e avenue,45.41631,-73.612916
687,7618.0,2021,788,Bennett / Pierre-de-Coubertin,45.55816,-73.5484
688,756.0,2021,79,Victoria / 18e avenue Lachine,45.435996,-73.680111
689,7584.0,2021,790,Métro de Castelnau (de Castelnau / St-Laurent),45.535709,-73.619624
690,2862.0,2021,834,Graham / Wicksteed,45.516937,-73.640483
691,2463.0,2021,835,Melville / de Maisonneuve,45.48184,-73.595379
692,119.0,2021,836,de la Pépinière / Pierre-de-Coubertin,45.576259,-73.538312
693,4889.0,2021,837,de Maisonneuve / Aylmer (ouest),45.505063,-73.570681
694,15419.0,2021,838,Drolet / Marie-Anne,45.522403,-73.581177
695,510.0,2021,840,des Bassins / Richmond,45.487531,-73.56507
696,3833.0,2021,841,de Laprairie / Centre,45.481367,-73.564319
697,2752.0,2021,842,Graham / Kindersley,45.51405,-73.647256
698,1844.0,2021,843,Glengarry / Graham,45.50919,-73.660321
699,8683.0,2021,845,Garnier / St-Grégoire,45.535834,-73.587021
700,3945.0,2021,846,Chabot / Villeray,45.552289,-73.613007
701,43.0,2021,851,18e avenue / St-Joseph Lachine,45.432977,-73.680815
702,12197.0,2021,852,Eleanor / Ottawa,45.492463,-73.560784
703,11045.0,2021,855,Clark / Ontario,45.510625,-73.566903
704,9749.0,2021,856,Smith / Peel,-1.0,-1.0
705,6328.0,2021,858,Henri-Julien / de Bellechasse,45.529504,-73.604865
706,6915.0,2021,859,Campus MIL (Outremont / Thérèse-Lavoie Roux),45.523172,-73.618097
707,4090.0,2021,86,Parc Pratt (Dunlop / Van Horne),45.515007,-73.619788
708,15027.0,2021,860,Parc Jean-Drapeau (Chemin Macdonald),45.512801,-73.531116
709,631.0,2021,862,St-Charles / St-Sylvestre,45.536344,-73.512778
710,4902.0,2021,864,Métro Villa-Maria (de Monkland / Décarie),45.478968,-73.619599
711,20801.0,2021,865,Jeanne-Mance / Laurier,45.520125,-73.595214
712,2592.0,2021,866,des Ormeaux / Notre-Dame,45.599266,-73.512261
713,6120.0,2021,868,10e avenue / Holt,45.551912,-73.579211
714,7398.0,2021,869,Christophe-Colomb / St-Joseph,45.530365,-73.584393
715,4173.0,2021,873,Clark / St-Zotique,45.531611,-73.61335
716,195.0,2021,874,St-Gérard / Villeray,45.542645,-73.622445
717,2028.0,2021,876,Plessis / Logan,45.521768,-73.557103
718,4529.0,2021,880,des Soeurs-Grises / Marguerite-d'Youville,45.498765,-73.554477
719,1472.0,2021,881,Jeanne-Mance / Bernard,45.52445,-73.605174
720,5004.0,2021,884,de Castelnau / Lajeunesse,45.540396,-73.616818
721,7411.0,2021,886,Fullum / Holt,45.54392,-73.584249
722,5257.0,2021,887,3e avenue / Holt,45.548004,-73.58139
723,3277.0,2021,888,Mozart / Waverly,45.531565,-73.616946
724,10800.0,2021,890,Boucher / St-Denis,45.527849,-73.591861
725,11104.0,2021,891,5e avenue / Masson,45.547558,-73.575472
726,2026.0,2021,892,des Érables / Dandurand,45.541369,-73.583974
727,7.0,2021,893,René-Lévesque / 9e avenue,45.640739,-73.500826
728,4915.0,2021,895,Bloomfield / Jean-Talon,45.52746,-73.624175
729,1574.0,2021,897,Gilford / Parthenais,45.537839,-73.574839
730,5061.0,2021,898,Louis-Hémon / Jean-Talon,45.551774,-73.603478
731,313.0,2021,899,de Grosbois / Ducheneau,45.611231,-73.531242
732,2208.0,2021,901,Notre-Dame-de-Grâce / Westmount,45.48047,-73.611216
733,2685.0,2021,903,Sherbrooke / Vignal,45.48983,-73.589678
734,7.0,2021,904,Marmier,45.531007,-73.598799
735,6865.0,2021,906,Parc Ludger-Duvernay (St-André / St-Hubert),45.531475,-73.592421
736,1756.0,2021,907,Métro Pie-IX (Pierre-de-Coubertin / De La Salle),45.555241,-73.550822
737,4938.0,2021,908,Lajeunesse / de Liège,45.545581,-73.6349
738,4782.0,2021,909,de Chateaubriand / Leman,45.547235,-73.631026
739,10972.0,2021,910,Fullum / Marie-Anne,45.536505,-73.568039
740,4704.0,2021,911,Rose-de-Lima / Workman,45.480264,-73.580994
741,1063.0,2021,912,Grey / Sherbrooke,45.476344,-73.606259
742,4131.0,2021,913,Parc Benny (Benny / de Monkland),45.466936,-73.631531
743,5374.0,2021,914,Earnscliffe / Queen-Mary,45.481845,-73.630374
744,2914.0,2021,915,McLynn / Plamondon,45.489113,-73.647013
745,6554.0,2021,916,St-Cyril / Wiseman,45.520855,-73.61574
746,6841.0,2021,917,Boyer / Everett,45.543285,-73.616286
747,3182.0,2021,918,Crescent / René-Lévesque,45.495962,-73.573254
748,8037.0,2021,919,des Récollets / McGill,45.500877,-73.559006
749,12903.0,2021,92,Métro Rosemont (de St-Vallier / Rosemont),45.531783,-73.597793
750,8514.0,2021,921,Fullum / de Rouen,45.532132,-73.55876
751,330.0,2021,922,Aréna Rodrigue-Gilbert (du Tricentenaire / de Montigny),45.651406,-73.500413
752,5887.0,2021,923,Fullum / Ontario,45.530317,-73.554867
753,444.0,2021,924,Place du Village-de-la-Pointe-aux-Trembles (St-Jean-Baptiste / Notre-Dame),45.640003,-73.490113
754,6742.0,2021,925,la Fontaine / Alexandre-de-Sève,45.523304,-73.558
755,460.0,2021,926,Cégep Marie-Victorin,45.6175,-73.606011
756,1108.0,2021,927,Hôpital Sacré-Coeur (Forbes),45.531944,-73.713605
757,2100.0,2021,928,Place Rodolphe-Rousseau (Gohier / Édouard-Laurin),45.512994,-73.682499
758,5744.0,2021,929,Molson / William-Tremblay,45.541549,-73.565012
759,4652.0,2021,930,Messier / St-Joseph,45.539461,-73.576056
760,482.0,2021,931,Ateliers municipaux de St-Laurent (Cavendish / Poirier),45.506176,-73.711186
761,592.0,2021,932,Centre des loisirs (Tassé / Grenet),45.514734,-73.691449
762,10050.0,2021,934,McKenna / Édouard-Montpetit,45.501165,-73.620548
763,18448.0,2021,935,St-Catherine / St-Laurent,45.509932,-73.563807
764,4192.0,2021,936,Du Quesne / Pierre-de-Coubertin,45.575054,-73.538932
765,1051.0,2021,937,Ste-Claire / Pierre-Tétreault,45.601913,-73.524419
766,14224.0,2021,938,Richmond / des Bassins,45.487522,-73.565003
767,439.0,2021,940,St-Joseph /21e avenue Lachine,45.433557,-73.684043
768,12132.0,2021,941,André-Laurendeau / Rachel,45.542898,-73.561846
769,7464.0,2021,942,des Érables / Laurier,45.538461,-73.577679
770,14220.0,2021,943,Clark / St-Viateur,45.52516,-73.599247
771,692.0,2021,944,Robin / 15e rue,45.559496,-73.698918
772,706.0,2021,945,Legrand / Cartier,45.552298,-73.707383
773,2800.0,2021,946,Parc nature de l'Île-de-la-Visitation (Gouin / de Bruchési),45.578332,-73.655954
774,2574.0,2021,947,De la Commune / King,45.497504,-73.552845
775,2488.0,2021,948,Parc Henri-Julien (Legendre / Henri-Julien),45.546036,-73.646599
776,12734.0,2021,949,Mackay / Sainte-Catherine,45.495761,-73.576826
777,8939.0,2021,950,Place d'Youville / McGill,45.499965,-73.556154
778,43.0,2021,951,Sainte-Catherine / Union,45.503666,-73.569576
779,271.0,2021,952,Place du Canada ( Peel / de la Gauchetière),45.498606,-73.569228
780,2656.0,2021,953,Guizot / Clark,45.539679,-73.634588
781,656.0,2021,954,Ste-Catherine / Union,45.503666,-73.569576
782,5561.0,2021,955,St-Christophe / René-Lévesque,45.514946,-73.556233
783,3584.0,2021,956,Parc de Dieppe,45.501864,-73.543961
784,1614.0,2021,957,De Lanaudière / du Mont-Royal,45.530221,-73.576997
785,8684.0,2021,958,Panet / Ste-Catherine,45.519957,-73.554817
786,5666.0,2021,959,Ann / Ottawa,45.49497,-73.558042
787,568.0,2021,960,Sainte-Catherine / Parthenais,45.526235,-73.54895
788,387.0,2021,961,Terminus Newman (Airlie / Lafleur),45.42506,-73.649599
789,1289.0,2021,962,2e avenue / Centrale,45.432894,-73.596853
790,908.0,2021,963,Travaux publics LaSalle (Cordner / Léger),45.445272,-73.624484
791,1114.0,2021,964,Lapierre / Serge,45.438544,-73.620216
792,2686.0,2021,965,Brittany / Ainsley,45.52589,-73.650034
793,1169.0,2021,966,Gloria / Dollard,45.429711,-73.633883
794,1099.0,2021,967,Métro Lionel-Groulx (Walker / Saint-Jacques),45.483221,-73.580764
795,6352.0,2021,968,Palm / St-Rémi,45.470366,-73.589816
796,5046.0,2021,970,d'Orléans / du Mont-Royal,45.554133,-73.560226
797,1544.0,2021,971,Parc Loyola (Somerled / Doherty),45.460023,-73.644442
798,1189.0,2021,972,Parc Van Horne (de la Peltrie / de Westbury),45.490472,-73.638532
799,138.0,2021,973,de la Rotonde / Jacques-Le Ber,45.47188,-73.53798
800,2958.0,2021,974,Parc de la Confédération (Fielding / West Hill),45.471882,-73.640022
801,114.0,2021,975,Parc MacDonald (Earnscliffe / Dupuis),45.484919,-73.637415
802,1247.0,2021,976,REV (Souligny / Desmarteau),45.604621,-73.515996
803,7723.0,2021,978,CHU Sainte-Justine (de la Côte Sainte-Catherine / Hudson),45.503982,-73.62284
804,949.0,2021,979,des Ormeaux / de Grosbois,45.605902,-73.53437
805,729.0,2021,980,Champdoré / de Lorimier,45.566869,-73.641017
806,109.0,2021,981,Parc Labelle (Lasalle/ Henri Duhamel),45.472561,-73.569989
807,1284.0,2021,982,Monk / de Biencourt,45.45843,-73.59606
808,1569.0,2021,983,Egan / Laurendeau,45.452858,-73.589249
809,6431.0,2021,984,Dorion / Rachel,45.531634,-73.568246
810,3898.0,2021,985,Parc Villeray (Christophe-Colomb / Jarry),45.548093,-73.624261
811,5127.0,2021,986,de Léry / Sherbrooke,45.541,-73.558263
812,8898.0,2021,987,St-Charles / Thomas-Keefer,45.477605,-73.573775
813,2004.0,2021,988,Monsabré / Boileau,45.571798,-73.54155
814,155.0,2021,989,Parc Georges St-Pierre (Oxford / Upper Lachine),45.468912,-73.609509
815,7474.0,2021,99,7e avenue / St-Joseph Rosemont,45.547108,-73.569367
816,426.0,2021,990,Aylmer/ Sainte-Catherine,45.504347,-73.568949
817,4164.0,2021,992,St-Henri / Notre-Dame,45.500278,-73.559877
818,1126.0,2021,993,de Grosbois / Duchesneau,45.611231,-73.531242
819,3556.0,2021,994,Parc Labelle (LaSalle / Henri-Duhamel),45.472561,-73.569989
820,98.0,2021,995,8e avenue / Everett,45.564811,-73.595804
821,2578.0,2021,996,Lacombe / Victoria,45.490628,-73.628878
822,2084.0,2021,997,Parc MacDonald (Clanranald / Isabella),45.482693,-73.634813
823,3554.0,2021,998,St-Ambroise / Louis-Cyr,45.475193,-73.580943
824,551.0,2021,999,Parc de Beauséjour (Gouin / Henri-d'Arles),45.526765,-73.730423
825,5065.0,2022,10,Métro Angrignon (Lamont /  des Trinitaires),45.44691,-73.60363
826,6841.0,2022,100,16e avenue / St-Joseph,45.55287,-73.565631
827,2153.0,2022,1000,Parc Champdoré (Champdoré / de Lille),45.569176,-73.636293
828,3558.0,2022,1003,Parc Tino-Rossi (18e avenue / Everett),45.564811,-73.595804
829,1785.0,2022,1004,Stinson / Montpellier,45.504014,-73.704427
830,11477.0,2022,1006,Place du Canada (Peel / de la Gauchetière),45.498468,-73.568434
831,9108.0,2022,1007,Aylmer / Ste-Catherine,45.504347,-73.568949
832,19131.0,2022,1009,de Lanaudière / du Mont-Royal,45.530221,-73.576997
833,6999.0,2022,1010,Métro Pie-IX (Pierre-de-Coubertin / de la Salle),45.555241,-73.550822
834,469.0,2022,1011,St-Joseph / 21e avenue Lachine,45.433557,-73.684043
835,4367.0,2022,1016,Parc Howard (de l'Épée / de Liège),45.56169,-73.610512
836,489.0,2022,1017,Sabrevois / des Récollets,45.583288,-73.632764
837,10737.0,2022,1020,Parc Maisonneuve (Viau / Sherbrooke),45.564937,-73.555591
838,3500.0,2022,1024,6e avenue / Bélanger,45.554564,-73.596157
839,8276.0,2022,1025,Marquette / Gilford,45.533851,-73.578912
840,722.0,2022,1026,Duchesneau / de Marseille,45.609626,-73.522739
841,9605.0,2022,1027,St-Antoine / de la Montagne,45.495372,-73.568589
842,1795.0,2022,1032,Parc des Hirondelles (Fleury / André-Jobin),45.576,-73.646765
843,15081.0,2022,1033,Parc Baldwin (Fullum / Sherbrooke),45.534071,-73.562651
844,8163.0,2022,1034,Parc Père-Marquette (de Lanaudière / de Bellechasse),45.539324,-73.595878
845,2.0,2022,1036,Dixie / 53e avenue,45.443351,-73.716905
846,105.0,2022,1037,Alexis-Nihon / St-Louis,45.500339,-73.682621
847,306.0,2022,1038,Parc Marlborough (Beauzèle / Robichaud),45.522342,-73.721679
848,963.0,2022,1040,Parc Reine-Élizabeth (Penniston / Crawford),45.439145,-73.591737
849,24538.0,2022,1041,Parc du Pélican (1ère avenue / Masson),45.5452,-73.576451
850,5131.0,2022,1044,Gilford / des Érables,45.537527,-73.575124
851,415.0,2022,1048,41e avenue / Victoria,45.440347,-73.702313
852,423.0,2022,1050,Parc Ivan-Franko (33e avenue / Victoria),45.43746,-73.693532
853,3284.0,2022,1053,Pratt / Bates,45.516948,-73.626316
854,3294.0,2022,1054,McCulloch / de la Côte Ste-Catherine,45.515775,-73.600609
855,1252.0,2022,1057,de Côme / Jean-Talon,45.588303,-73.577837
856,2230.0,2022,1062,Beurling / Godin,45.447916,-73.583819
857,5293.0,2022,1068,Métro Fabre (Marquette / Jean-Talon),45.547408,-73.607669
858,4713.0,2022,1069,Métro Plamondon (de Kent / Victoria),45.494564,-73.638702
859,17088.0,2022,1070,Métro Place-des-Arts (du Président-Kennedy / Jeanne-Mance),45.508205,-73.568814
860,6241.0,2022,1071,Letourneux / Ste-Catherine,45.550784,-73.5341
861,13446.0,2022,1072,Métro Jarry (Lajeunesse / Jarry),45.54356,-73.627772
862,13182.0,2022,1073,Gilford / St-Denis,45.525115,-73.586006
863,184.0,2022,1075,Parc Maurice Bélanger (Hebert / Forest),45.588082,-73.632223
864,5631.0,2022,1076,Durocher / Beaumont,45.528,-73.619236
865,9198.0,2022,1077,Marie-Anne / Papineau,45.531774,-73.572446
866,2748.0,2022,1082,Péloquin / Fleury,45.557022,-73.659902
867,9.0,2022,1085,Parc Henri-Durant (Léger / Henri-Durant),45.56844,-73.675202
868,559.0,2022,1086,Parc Chopin (Dumouchel / Tessier),45.570727,-73.737086
869,4290.0,2022,1087,27e avenue / Rosemont,45.563679,-73.571605
870,18315.0,2022,1090,Métro Beaudry (Montcalm / de Maisonneuve),45.519132,-73.55789
871,3451.0,2022,1091,Durocher / St-Viateur,45.520796,-73.603271
872,4779.0,2022,1101,de Rouen / Lespérance,45.538627,-73.552839
873,967.0,2022,1103,Parc Wilfrid-Bastien (Lacordaire / des Galets),45.5864,-73.595218
874,667.0,2022,1104,Parc Delorme (Malouin / Laferté),45.59049,-73.590269
875,645.0,2022,1105,Parc St-Laurent (Salk / Thomas-Chapais),45.606235,-73.628784
876,517.0,2022,1107,Parc Beaulac (rue Élizabeth),45.520056,-73.677952
877,1474.0,2022,1108,CHSLD St-Michel (8e avenue / Jarry),45.56169,-73.610512
878,431.0,2022,1109,Mairie d'arrondissement Montréal-Nord (Hébert / de Charleroi),45.593985,-73.637672
879,1350.0,2022,1110,Parc Luigi-Pirandello (de Bretagne / Jean-Rivard),45.579406,-73.602589
880,1117.0,2022,1111,Parc LaSalle (10e avenue / Victoria),45.438056,-73.672739
881,897.0,2022,1112,Parc Stoney-Point (St-Joseph / 47e avenue),45.436568,-73.70837
882,5589.0,2022,1113,Parc riverain de Lachine (des Iroquois),45.430543,-73.669024
883,518.0,2022,1114,Bibliothèque Jean-Corbeil (Goncourt / Place Montrichard),45.602728,-73.55793
884,1408.0,2022,1115,Aréna Chaumont (Chaumont / des Ormeaux),45.610927,-73.546735
885,991.0,2022,1116,Parc Chamberland (Dorais / de l'Église),45.502989,-73.689113
886,522.0,2022,1117,Parc Noel-Nord (Toupin / Keller),45.517583,-73.726614
887,1576.0,2022,1118,Parc du Bois-Franc (de l'Équateur / des Andes),45.513178,-73.713061
888,474.0,2022,1119,Parc Grovehill (St-Antoine / Ivan-Franko),45.439824,-73.694878
889,1328.0,2022,1120,Parc Kirkland (des Érables / Boyer),45.446061,-73.6508
890,1171.0,2022,1121,Parc Painter (Marcotte / Quenneville),45.528631,-73.677312
891,2466.0,2022,1123,Bibliothèque d'Ahuntsic (Lajeunesse / Fleury),45.5534,-73.662255
892,8162.0,2022,1124,La Tour de Montréal (Pierre-de-Coubertin / Bennett),45.559705,-73.551554
893,2799.0,2022,1125,CCI Outremont (Dollard / Durcharme),45.520019,-73.618907
894,1107.0,2022,1128,Parc Summerlea (53e avenue / St-Joseph),45.438367,-73.715467
895,757.0,2022,1132,Parc Ottawa (de Belleville / Fleury),45.58116,-73.641243
896,620.0,2022,1133,Parc Turin (Chambord / Jean-Talon),45.544681,-73.610161
897,11517.0,2022,1137,Métro Lionel-Groulx (St-Jacques / Atwater),45.483629,-73.579703
898,8699.0,2022,1139,CHU Ste-Justine (de la Côte Ste-Catherine / Hudson),45.503982,-73.62284
899,698.0,2022,1140,Parc St-Laurent (Dutrisac),45.525914,-73.689112
900,2156.0,2022,1142,Parc St-Louis (St-Joseph / 34e avenue),45.43284,-73.693492
901,84.0,2022,1145,Parc d'Antioche ( Place d'Antioche / St-Zotique),45.595352,-73.558676
902,6738.0,2022,1146,Duluth /St-Denis,45.520598,-73.575971
903,8408.0,2022,1147,Fullum / Terrasse Mercure,45.535483,-73.565939
904,3054.0,2022,1148,Hutchison/ Van Horne,45.524977,-73.610686
905,3612.0,2022,1149,Letourneux / Hochelaga,45.554659,-73.546603
906,8530.0,2022,1150,Chambord/ Beaubien,45.5399,-73.599362
907,12351.0,2022,1151,de la Montagne/ Sherbrooke,45.499744,-73.578938
908,380.0,2022,1152,19e avenue / St-Antoine,45.439779,-73.681371
909,4973.0,2022,1153,de la Peltrie / de la Côte-des-Neiges,45.499797,-73.630175
910,881.0,2022,1154,Mozart / Casgrain,45.534725,-73.614521
911,8878.0,2022,1155,St-Hubert /de Maisonneuve,45.516132,-73.560497
912,3508.0,2022,1156,Everett / Garnier,45.547582,-73.612209
913,2083.0,2022,1157,Michelet / Jean-Talon,45.576291,-73.583529
914,748.0,2022,1158,Parc Ferland (Belleherbe / Albanel),45.595768,-73.595304
915,565.0,2022,1159,Place du Village (St-Jean-Baptiste / Notre-Dame),45.640003,-73.490113
916,4187.0,2022,1160,Monk / Biencourt,45.458663,-73.596023
917,11584.0,2022,1161,Durocher / Sherbrooke,45.507076,-73.572285
918,13104.0,2022,1162,Beaudry / Ontario,45.521458,-73.56205
919,6743.0,2022,1163,Parc Lalancette (de Rouen/ Valois),45.548145,-73.547126
920,5288.0,2022,1164,Bennett / Adam,45.553651,-73.53415
921,1840.0,2022,1165,Cégep André-Laurendeau (Lapierre),45.436055,-73.605775
922,703.0,2022,1166,Mairie d'arrondissement LaSalle (Dupras / Jeannette),45.429167,-73.66281
923,439.0,2022,1167,Dixie / 54e avenue,45.44338,-73.717892
924,3618.0,2022,1168,Ste-Émilie / St-Rémi,45.469766,-73.589259
925,11058.0,2022,1169,Alexandre-DeSève  / Ontario,45.524359,-73.560534
926,3495.0,2022,1170,Bloomfied / St-Viateur,45.519104,-73.605191
927,1690.0,2022,1171,Parc Félix-Leclerc (François-Boivin / St-Zotique),45.591455,-73.562755
928,628.0,2022,1172,2e avenue /centrale,45.432895,-73.596857
929,676.0,2022,1173,Métro de la Concorde (Léo-Lacombe),45.56049,-73.709185
930,426.0,2022,1174,Parc Henri-Dunant (Léger / Henri-Dunant),45.56844,-73.675202
931,11808.0,2022,1175,du Parc-Lafontaine / Rachel,45.525474,-73.574325
932,5297.0,2022,1176,Bloomfield / Ball,45.529959,-73.632946
933,6673.0,2022,1177,Métro Laurier (Bibaud / Rivard),45.527839,-73.589575
934,4267.0,2022,125,Cité des Arts du Cirque (Paul Boutet / des Regrattiers),45.559872,-73.615541
935,3300.0,2022,126,Rousselot / Jarry,45.550899,-73.62108
936,8955.0,2022,13,Métro de l'Église (Ross / de l'Église),45.462726,-73.565959
937,11978.0,2022,135,St-Alexandre / Ste-Catherine,45.505359,-73.567741
938,12069.0,2022,137,Jeanne-d'Arc / Ontario,45.549598,-73.541874
939,4779.0,2022,139,d'Orléans / Hochelaga,45.550768,-73.549427
940,8593.0,2022,141,Marché Maisonneuve,45.553219,-73.539782
941,5564.0,2022,142,Ontario / Sicard,45.556262,-73.537441
942,4715.0,2022,143,de Ville-Marie / Ste-Catherine,45.557921,-73.529147
943,5591.0,2022,144,Ontario / Viau,45.559482,-73.535496
944,17316.0,2022,145,Gauthier / Papineau,45.529666,-73.567336
945,9118.0,2022,146,Gauthier / de Lorimier,45.531674,-73.565413
946,7006.0,2022,147,Gauthier / Parthenais,45.532926,-73.56378
947,8677.0,2022,148,de Bordeaux / Marie-Anne,45.533409,-73.570657
948,10992.0,2022,149,des Érables / Rachel,45.533547,-73.566867
949,7563.0,2022,152,Bercy / Rachel,45.538403,-73.561964
950,8833.0,2022,153,Ste-Catherine / Dezery,45.539385,-73.541
951,11431.0,2022,154,Dézéry / Ontario,45.54111,-73.54755
952,10078.0,2022,155,Métro Préfontaine (Moreau / Hochelaga),45.54178,-73.555714
953,6459.0,2022,156,Valois / Ste-Catherine,45.54523,-73.53725
954,3896.0,2022,157,St-Germain / Hochelaga,45.543699,-73.553673
955,17150.0,2022,158,Aylwin / Ontario,45.544284,-73.54534
956,11587.0,2022,159,Métro Joliette  (Joliette / Hochelaga),45.546907,-73.551557
957,4695.0,2022,161,Nicolet / Sherbrooke,45.549695,-73.554647
958,3541.0,2022,162,Métro Assomption (Chauveau / de l'Assomption),45.569789,-73.548081
959,2059.0,2022,164,Métro Cadillac (de Cadillac / Sherbrooke),45.576963,-73.546836
960,1835.0,2022,165,Pierre-de-Coubertin / Langelier,45.580315,-73.535314
961,3567.0,2022,166,Métro Langelier (Langelier / Sherbrooke),45.582847,-73.542476
962,32644.0,2022,167,Boyer / du Mont-Royal,45.527432,-73.579917
963,17213.0,2022,168,Calixa-Lavallée / Rachel,45.527795,-73.571939
964,27479.0,2022,169,de Brébeuf / du Mont-Royal,45.529408,-73.578154
965,2643.0,2022,17,Tolhurst / Fleury,45.544149,-73.66752
966,8833.0,2022,170,de Lanaudière / Marie-Anne,45.529326,-73.574806
967,14890.0,2022,171,Marquette / Rachel,45.529802,-73.57029
968,36459.0,2022,173,Marquette / du Mont-Royal,45.53229,-73.57544
969,21438.0,2022,175,Chabot / du Mont-Royal,45.534185,-73.573589
970,6064.0,2022,176,Cartier / St-Joseph,45.535828,-73.57869
971,7562.0,2022,177,de Bordeaux / Gilford,45.53611,-73.576287
972,14436.0,2022,179,Messier / du Mont-Royal,45.537114,-73.571003
973,11072.0,2022,180,Laurier / de Bordeaux,45.537205,-73.579254
974,8926.0,2022,181,Cartier / Masson,45.538021,-73.583524
975,6543.0,2022,182,Chapleau / du Mont-Royal,45.53867,-73.56936
976,8893.0,2022,183,de Bordeaux / Masson,45.538984,-73.582445
977,5654.0,2022,184,Fullum / Gilford,45.539224,-73.573837
978,4983.0,2022,185,Parc des Rapides (LaSalle / 6e avenue),45.429471,-73.593099
979,3108.0,2022,186,LaSalle / Crawford,45.437914,-73.58274
980,4757.0,2022,187,Natatorium (LaSalle / Rolland),45.444547,-73.575091
981,2935.0,2022,188,Bibliothèque de Verdun (Brown / Bannantyne),45.448262,-73.577856
982,5304.0,2022,189,Beatty / de Verdun,45.45073,-73.572575
983,5825.0,2022,190,Métro Monk (Allard / Beaulieu),45.450851,-73.594027
984,3083.0,2022,191,Argyle / Bannantyne,45.453319,-73.576775
985,5486.0,2022,192,Argyle / de Verdun,45.453016,-73.571915
986,4395.0,2022,193,Hamilton / Jolicoeur,45.456355,-73.597557
987,3594.0,2022,194,5e avenue / Bannantyne,45.456365,-73.57614
988,4828.0,2022,196,4e avenue / de Verdun,45.456885,-73.572607
989,3729.0,2022,197,Dubois / Eadie,45.457597,-73.590529
990,3370.0,2022,198,2e avenue / Wellington,45.457893,-73.567528
991,10087.0,2022,199,Métro Verdun (Willibrord / de Verdun),45.459488,-73.572092
992,3384.0,2022,200,Gordon / Wellington,45.461078,-73.567307
993,6175.0,2022,201,Parc St-Paul (Le Caron / Marc-Sauvalle),45.461685,-73.584039
994,6073.0,2022,202,St-Patrick / Briand,45.463397,-73.596436
995,5372.0,2022,203,de l'Église / de Verdun,45.463001,-73.571569
996,5751.0,2022,204,de l'Église / Bannantyne,45.463254,-73.575879
997,6235.0,2022,205,Regina / de Verdun,45.467369,-73.570769
998,9321.0,2022,206,Métro Lasalle (de Rushbrooke / Caisse),45.470696,-73.565422
999,11009.0,2022,207,Métro Laurier (Rivard / Laurier),45.527616,-73.589115
1000,11915.0,2022,208,St-Hubert / Laurier,45.52931,-73.588657
1001,6121.0,2022,209,Hélène-Baillargeon / St-Denis,45.52974,-73.59527
1002,15068.0,2022,211,de Mentana / Laurier,45.53045,-73.587638
1003,32234.0,2022,214,Laurier / de Brébeuf,45.532514,-73.584811
1004,6846.0,2022,215,Garnier / St-Joseph,45.532978,-73.581222
1005,13607.0,2022,216,de Lanaudière / Laurier,45.533314,-73.583737
1006,8148.0,2022,217,Gerry-Boulet / St-Grégoire,45.533735,-73.589307
1007,19420.0,2022,218,Marquette / Laurier,45.53543,-73.5822
1008,6430.0,2022,221,Métro Crémazie (Crémazie / Lajeunesse),45.546408,-73.638428
1009,3213.0,2022,222,Clark / Fleury,45.547581,-73.665234
1010,3686.0,2022,223,Émile-Journault / de Chateaubriand,45.549833,-73.640633
1011,4396.0,2022,224,Basile-Routhier / Chabanel,45.549868,-73.647657
1012,6785.0,2022,225,Métro Sauvé (Berri / Sauvé),45.550692,-73.656367
1013,4613.0,2022,226,Jacques-Casault / Christophe-Colomb,45.552123,-73.630103
1014,1691.0,2022,227,Complexe sportif Claude-Robillard,45.553262,-73.638615
1015,4616.0,2022,229,Métro Henri-Bourassa (Henri-Bourassa / Millen),45.556751,-73.667162
1016,2957.0,2022,230,Chambord / Fleury,45.559828,-73.658325
1017,1772.0,2022,231,Hamel / Sauvé,45.560762,-73.650561
1018,2587.0,2022,232,Francis / Fleury,45.563872,-73.655568
1019,2314.0,2022,233,Marquette / Fleury,45.567352,-73.653787
1020,11584.0,2022,234,de l'Hôtel-de-Ville / Sherbrooke,45.514565,-73.568407
1021,23797.0,2022,235,Square St-Louis (du Square St-Louis / Laval),45.516091,-73.570129
1022,23941.0,2022,236,Parc Jeanne-Mance (du Mont-Royal / du Parc),45.517,-73.589
1023,17597.0,2022,237,de l'Esplanade / du Mont-Royal,45.518253,-73.588338
1024,13503.0,2022,238,Villeneuve / du Parc,45.51829,-73.59235
1025,22203.0,2022,239,Roy / St-Denis,45.51908,-73.5727
1026,24811.0,2022,240,Berri / Cherrier,45.519088,-73.569509
1027,15614.0,2022,241,Laval / Duluth,45.519216,-73.57718
1028,36816.0,2022,242,du Mont-Royal / Clark,45.51941,-73.58685
1029,14081.0,2022,243,Laval / Rachel,45.520179,-73.579424
1030,9629.0,2022,244,Villeneuve / St-Urbain,45.520188,-73.590559
1031,15027.0,2022,245,St-André / Cherrier,45.520524,-73.567697
1032,14539.0,2022,247,Roy / St-André,45.521564,-73.570367
1033,11220.0,2022,248,de Bullion / du Mont-Royal,45.521751,-73.585268
1034,18439.0,2022,249,Rivard / Rachel,45.522278,-73.577591
1035,14914.0,2022,250,Laval / du Mont-Royal,45.522365,-73.584146
1036,16837.0,2022,251,St-Hubert / Duluth,45.522426,-73.574184
1037,11882.0,2022,252,Berri / Rachel,45.522719,-73.577204
1038,11347.0,2022,253,Beaudry / Sherbrooke,45.523035,-73.565395
1039,13446.0,2022,254,du Parc-La Fontaine / Roy,45.522866,-73.568377
1040,10958.0,2022,255,Villeneuve / de l'Hôtel-de-Ville,45.523544,-73.587332
1041,57124.0,2022,256,Métro Mont-Royal (Rivard / du Mont-Royal),45.524673,-73.58255
1042,10274.0,2022,257,Marie-Anne / St-Hubert,45.524683,-73.578897
1043,12587.0,2022,258,du Parc-La Fontaine / Duluth,45.524518,-73.571977
1044,14275.0,2022,259,Calixa-Lavallée / Sherbrooke,45.52479,-73.56545
1045,703.0,2022,260,de Mentana / Rachel,45.524963,-73.575559
1046,21741.0,2022,261,Resther / du Mont-Royal,45.525628,-73.581775
1047,10876.0,2022,262,de Mentana / Marie-Anne,45.526027,-73.577859
1048,9945.0,2022,263,Métro Laurier (Berri / St-Joseph),45.527231,-73.586726
1049,10959.0,2022,264,Pontiac / Gilford,45.527009,-73.585766
1050,19062.0,2022,265,Émile-Duployé / Sherbrooke,45.527201,-73.564729
1051,11567.0,2022,266,Marie-Anne / de la Roche,45.527758,-73.576185
1052,10030.0,2022,267,Gilford / de Brébeuf,45.530816,-73.581626
1053,7308.0,2022,268,Gilford / de Lanaudière,45.532008,-73.580444
1054,1851.0,2022,271,Sanguinet / Ontario,45.514767,-73.565491
1055,19281.0,2022,272,Ste-Catherine / Labelle,45.515065,-73.55923
1056,21852.0,2022,273,St-André / Ste-Catherine,45.516427,-73.558112
1057,14092.0,2022,274,Gare d'autocars de Montréal (Berri / Ontario),45.516897,-73.563949
1058,4869.0,2022,277,St-André / Robin,45.518128,-73.561851
1059,8550.0,2022,278,St-André / Ontario,45.51889,-73.56353
1060,5476.0,2022,280,Plessis / René-Lévesque,45.519373,-73.551958
1061,7341.0,2022,281,Wolfe / Robin,45.519581,-73.560116
1062,4228.0,2022,284,Papineau / René-Lévesque,45.52114,-73.54926
1063,8988.0,2022,285,Alexandre-DeSève / Ste-Catherine,45.52123,-73.553861
1064,6964.0,2022,286,Logan / de Champlain,45.523194,-73.555843
1065,9718.0,2022,288,Plessis / Ontario,45.523492,-73.56073
1066,26333.0,2022,289,Métro Papineau (Cartier / Ste-Catherine),45.52353,-73.55199
1067,1412.0,2022,291,Parthenais / Ste-Catherine,45.526006,-73.548864
1068,7476.0,2022,292,Jean Langlois / Fullum,45.5265,-73.545753
1069,17080.0,2022,293,Dorion / Ontario,45.526991,-73.558212
1070,6770.0,2022,294,Logan / Fullum,45.528366,-73.551171
1071,6741.0,2022,295,Poupart / Ste-Catherine,45.529002,-73.546199
1072,9158.0,2022,296,Larivière / de Lorimier,45.529134,-73.559234
1073,9321.0,2022,297,de Bordeaux / Sherbrooke,45.529971,-73.563053
1074,5193.0,2022,298,Logan / d'Iberville,45.53057,-73.54913
1075,5686.0,2022,299,Poupart / Ontario,45.531939,-73.553439
1076,10916.0,2022,302,Métro Frontenac (Ontario / du Havre),45.533706,-73.552179
1077,5281.0,2022,303,Hochelaga / Chapleau,45.534453,-73.559652
1078,7029.0,2022,304,du Havre / de Rouen,45.534563,-73.554787
1079,3947.0,2022,305,Hogan / Ontario,45.535295,-73.55116
1080,5088.0,2022,306,Sherbrooke / Frontenac,45.5367,-73.56081
1081,5899.0,2022,307,Wurtele / de Rouen,45.537628,-73.553394
1082,20860.0,2022,309,University / Milton,45.506511,-73.576669
1083,13254.0,2022,310,University / Prince-Arthur,45.507402,-73.578444
1084,19257.0,2022,311,Milton / Durocher,45.508141,-73.57493
1085,14606.0,2022,312,Aylmer / Prince-Arthur,45.508567,-73.577698
1086,21186.0,2022,313,Milton / du Parc,45.509361,-73.573864
1087,12688.0,2022,314,Hutchison / Prince-Arthur,45.509759,-73.576107
1088,20190.0,2022,315,Ste-Famille / Sherbrooke,45.510072,-73.570752
1089,30203.0,2022,316,Prince-Arthur / du Parc,45.51059,-73.57547
1090,21837.0,2022,317,Métro St-Laurent (de Maisonneuve / St-Laurent),45.51066,-73.56497
1091,14444.0,2022,318,Hutchison / des Pins,45.51069,-73.57805
1092,9653.0,2022,321,de l'Hôtel-de-Ville / Ste-Catherine,45.51166,-73.562136
1093,24763.0,2022,322,Milton / Clark,45.512541,-73.570677
1094,10985.0,2022,323,Prince-Arthur / St-Urbain,45.512587,-73.573739
1095,8893.0,2022,324,Sanguinet / Ste-Catherine,45.512797,-73.561463
1096,5107.0,2022,325,Ste-Famille / des Pins,45.512832,-73.576888
1097,26023.0,2022,326,Clark / Prince-Arthur,45.513303,-73.572961
1098,10399.0,2022,327,Sanguinet / de Maisonneuve,45.513405,-73.562594
1099,15685.0,2022,328,Guilbault / Clark,45.514108,-73.57523
1100,12073.0,2022,329,Metcalfe / St-Catherine,45.500832,-73.572459
1101,31294.0,2022,330,Parc Jeanne Mance (monument sir George-Etienne Cartier),45.51484,-73.584779
1102,17605.0,2022,331,Duluth / de l'Esplanade,45.515092,-73.581142
1103,20124.0,2022,332,BAnQ (Berri / de Maisonneuve),45.515299,-73.561273
1104,9970.0,2022,333,Parc de Bullion (de Bullion / Prince-Arthur),45.515604,-73.572135
1105,23845.0,2022,334,Roy / St-Laurent,45.515616,-73.575808
1106,25199.0,2022,336,Duluth / St-Laurent,45.516876,-73.57946
1107,8884.0,2022,337,de l'Hôtel-de-Ville / Roy,45.517401,-73.574605
1108,23335.0,2022,338,Clark / Rachel,45.517354,-73.582129
1109,25094.0,2022,339,St-Dominique / Rachel,45.518593,-73.581566
1110,16232.0,2022,340,Vallières / St-Laurent,45.518967,-73.583616
1111,5670.0,2022,341,U. Concordia - Campus Loyola (Sherbrooke / West Broadway),45.457509,-73.639485
1112,3831.0,2022,342,Park Row O / Sherbrooke,45.460729,-73.634073
1113,5760.0,2022,343,Benny / Sherbrooke,45.464877,-73.626597
1114,5168.0,2022,344,Grand Boulevard / Sherbrooke,45.466569,-73.623295
1115,4363.0,2022,346,de la Côte St-Antoine / Royal,45.468927,-73.61987
1116,4343.0,2022,347,de Melrose / Sherbrooke,45.46982,-73.616961
1117,3026.0,2022,348,de Hampton / de Monkland,45.471179,-73.627002
1118,6281.0,2022,349,Marcil / Sherbrooke,45.471743,-73.613924
1119,4564.0,2022,350,Harvard / de Monkland,45.474565,-73.624036
1120,4950.0,2022,351,de Monkland / Girouard,45.477107,-73.621438
1121,1546.0,2022,352,Notre-Dame-de-Grâce / Décarie,45.477353,-73.615372
1122,8113.0,2022,354,Métro Snowdon (de Westbury / Queen-Mary),45.485385,-73.628142
1123,3301.0,2022,355,Lionel-Groulx / George-Vanier,45.486219,-73.573747
1124,4574.0,2022,356,Canning / Notre-Dame,45.486319,-73.570233
1125,10711.0,2022,357,des Seigneurs / Notre-Dame,45.487723,-73.569083
1126,7008.0,2022,358,Métro Georges-Vanier (St-Antoine / Canning),45.4891,-73.57656
1127,34642.0,2022,359,Métro Atwater (Atwater / Ste-Catherine),45.489476,-73.584566
1128,5294.0,2022,360,Atwater / Sherbrooke,45.491226,-73.58763
1129,3868.0,2022,361,Beaucourt / de la Côte-Ste-Catherine,45.491513,-73.633649
1130,18260.0,2022,362,Chomedey / de Maisonneuve,45.4918,-73.584006
1131,14687.0,2022,363,Ste-Catherine / St-Marc,45.492897,-73.580294
1132,5646.0,2022,364,Lincoln / du Fort,45.493034,-73.583836
1133,18469.0,2022,365,St-Mathieu / Ste-Catherine,45.49368,-73.579146
1134,4613.0,2022,366,St-Marc / Sherbrooke,45.494514,-73.583368
1135,13481.0,2022,368,Jean-Brillant / de la Côte-des-Neiges,45.495415,-73.622341
1136,5146.0,2022,369,Hôpital général juif (de la Côte Ste-Catherine / Légaré),45.496302,-73.629822
1137,23861.0,2022,370,Mackay / de Maisonneuve,45.49683,-73.57913
1138,4269.0,2022,371,Swail / Decelles,45.497055,-73.618652
1139,10547.0,2022,373,de Kent / de la Côte-des-Neiges,45.501449,-73.633051
1140,5729.0,2022,374,de Soissons / de Darlington,45.506899,-73.623526
1141,6402.0,2022,375,Parc Kent (de Kent / Hudson),45.505721,-73.629459
1142,11523.0,2022,376,Édouard-Montpetit / de Stirling,45.50723,-73.615085
1143,7942.0,2022,377,Wilderton  / Van Horne,45.510142,-73.624752
1144,12854.0,2022,378,Tupper / du Fort,45.49123,-73.580782
1145,12225.0,2022,379,St-Mathieu / Sherbrooke,45.495789,-73.582596
1146,17920.0,2022,38,Métro Vendôme (de Marlowe / de Maisonneuve),45.473868,-73.604538
1147,20436.0,2022,381,Crescent / de Maisonneuve,45.498112,-73.577615
1148,12349.0,2022,382,Drummond / Ste-Catherine,45.498639,-73.574227
1149,6024.0,2022,383,de la Cathédrale / René-Lévesque,45.499191,-73.569421
1150,10224.0,2022,384,Cypress / Peel,45.499325,-73.571768
1151,11232.0,2022,385,Drummond / de Maisonneuve,45.49947,-73.57591
1152,5615.0,2022,387,Notre-Dame / Gauvin,45.500105,-73.560199
1153,28478.0,2022,388,Métro Peel (de Maisonneuve / Stanley),45.50038,-73.57507
1154,5646.0,2022,389,de la Gauchetière / Robert-Bourassa,45.500606,-73.565448
1155,741.0,2022,392,Stanley / Sherbrooke,45.501041,-73.577178
1156,8664.0,2022,393,Metcalfe / de Maisonneuve,45.501715,-73.57413
1157,9894.0,2022,394,St-Nicolas / Place d'Youville,45.501967,-73.555153
1158,14713.0,2022,395,Square Victoria (Viger / du Square-Victoria),45.50206,-73.56295
1159,6797.0,2022,396,Union / René-Lévesque,45.50235,-73.566583
1160,9417.0,2022,397,St-Jacques / St-Pierre,45.502786,-73.559134
1161,22822.0,2022,398,McTavish / Sherbrooke,45.502813,-73.576024
1162,9839.0,2022,400,du President-Kennedy / Union,45.505011,-73.572028
1163,5077.0,2022,401,St-Antoine / St-François-Xavier,45.504591,-73.559188
1164,6238.0,2022,403,Viger / Chenneville,45.505312,-73.560891
1165,10837.0,2022,404,Métro Place-d'Armes (Viger / St-Urbain),45.50623,-73.55976
1166,7129.0,2022,405,City Councillors / du President-Kennedy,45.506251,-73.571391
1167,7559.0,2022,406,St-Jacques / St-Laurent,45.506421,-73.556466
1168,10558.0,2022,407,St-Urbain / de la Gauchetière,45.507078,-73.561395
1169,6206.0,2022,408,Notre-Dame / St-Gabriel,45.507144,-73.555119
1170,6156.0,2022,409,du Champ-de-Mars / Gosford,45.509655,-73.554009
1171,11070.0,2022,410,Métro Champ-de-Mars (Viger / Sanguinet),45.510351,-73.556508
1172,6794.0,2022,411,St-André / St-Antoine,45.514114,-73.552645
1173,8170.0,2022,412,Ottawa / William,45.489727,-73.564063
1174,9484.0,2022,413,Joseph-Manseau / René-Lévesque,45.491687,-73.576767
1175,15555.0,2022,414,Notre-Dame / de la Montagne,45.493029,-73.564818
1176,5204.0,2022,415,Lucien L'Allier / St-Jacques,45.493569,-73.568576
1177,5477.0,2022,418,Métro Lucien-L'Allier  (Lucien l'Allier / Argyle),45.494872,-73.571124
1178,6111.0,2022,419,Duke / Brennan,45.495581,-73.553711
1179,11124.0,2022,420,Bishop / Ste-Catherine,45.496583,-73.576502
1180,25351.0,2022,421,de la Commune / King,45.497515,-73.552571
1181,10226.0,2022,422,William / St-Henri,45.498919,-73.557254
1182,5307.0,2022,423,Queen / Wellington,45.497605,-73.55535
1183,11188.0,2022,425,Labadie / du Parc,45.519895,-73.596827
1184,17615.0,2022,427,de l'Esplanade / Fairmount,45.521496,-73.596827
1185,17463.0,2022,428,Jeanne-Mance / St-Viateur,45.523027,-73.60184
1186,12582.0,2022,429,Waverly / St-Viateur,45.523856,-73.600127
1187,13067.0,2022,43,Métro Université de Montréal (Édouard-Montpetit / Louis-Collin),45.50367,-73.61848
1188,10336.0,2022,430,de Bullion / St-Joseph,45.524037,-73.590143
1189,17565.0,2022,431,Bernard / Jeanne-Mance,45.524287,-73.604973
1190,14703.0,2022,432,Maguire / St-Laurent,45.524628,-73.595811
1191,6389.0,2022,434,de Gaspé / Fairmount,45.525648,-73.592928
1192,16533.0,2022,436,Drolet / Laurier,45.526252,-73.589758
1193,9905.0,2022,437,St-Dominique / St-Viateur,45.526557,-73.598276
1194,6661.0,2022,438,Maguire / Henri-Julien,45.527041,-73.593471
1195,4141.0,2022,439,Waverly / Van Horne,45.527363,-73.607723
1196,5265.0,2022,440,Casgrain / St-Viateur,45.527513,-73.598791
1197,6729.0,2022,441,de Gaspé / St-Viateur,45.527748,-73.597439
1198,5715.0,2022,442,Henri-Julien / du Carmel,45.527839,-73.594821
1199,6598.0,2022,443,St-Dominique / Bernard,45.527933,-73.601223
1200,3095.0,2022,444,Berlioz / de l'Île des Soeurs,45.459986,-73.543956
1201,6098.0,2022,445,Place du Commerce,45.46714,-73.54259
1202,16888.0,2022,447,Léa-Roback / Sir-Georges-Etienne-Cartier,45.471669,-73.582644
1203,3558.0,2022,448,Jacques-Le Ber / de la Pointe Nord,45.472503,-73.539285
1204,11894.0,2022,449,Ste-Émilie / Sir-Georges-Etienne-Cartier,45.472668,-73.58539
1205,6802.0,2022,450,Ryde / Charlevoix,45.475743,-73.564601
1206,11740.0,2022,451,Métro Place St-Henri (St-Ferdinand / St-Jacques),45.477249,-73.587238
1207,6127.0,2022,452,Fortune / Wellington,45.477923,-73.559038
1208,11593.0,2022,453,Métro Charlevoix (Centre / Charlevoix),45.478228,-73.569651
1209,7068.0,2022,455,Bourgeoys / Favard,45.47993,-73.555921
1210,7065.0,2022,456,Ropery / Augustin-Cantin,45.480914,-73.56846
1211,10921.0,2022,459,Duvernay / Charlevoix,45.482098,-73.574876
1212,5173.0,2022,461,Shearer / Centre,45.483006,-73.562187
1213,4749.0,2022,462,Charlevoix / Lionel-Groulx,45.483928,-73.577312
1214,8007.0,2022,463,Augustin-Cantin / Shearer,45.484018,-73.563437
1215,9744.0,2022,464,Richardson / de Montmorency,45.48498,-73.560333
1216,4853.0,2022,465,Georges-Vanier / Notre-Dame,45.485048,-73.571963
1217,4078.0,2022,466,Quesnel / Vinet,45.485889,-73.577514
1218,8937.0,2022,467,Guy / Notre-Dame,45.490042,-73.567111
1219,16640.0,2022,468,Young / Wellington,45.492825,-73.557978
1220,29748.0,2022,469,de la Commune / St-Sulpice,45.504242,-73.55347
1221,18115.0,2022,47,Métro Guy-Concordia (Guy / St-Catherine),45.495045,-73.57783
1222,35023.0,2022,470,de la Commune / Place Jacques-Cartier,45.50761,-73.551836
1223,22823.0,2022,471,de la Commune / Berri,45.51086,-73.54983
1224,19821.0,2022,472,Rachel / de Brébeuf,45.52689,-73.57264
1225,4331.0,2022,474,Métro Acadie (de l'Acadie / Beaumont),45.523575,-73.623443
1226,1710.0,2022,477,Métro de la Savane (de Sorel / Bougainville),45.500451,-73.661428
1227,5172.0,2022,478,Dollard / Bernard,45.516783,-73.611423
1228,7871.0,2022,479,Casgrain / Maguire,45.525933,-73.595253
1229,5466.0,2022,480,Jeanne-Mance / Beaubien,45.52765,-73.6123
1230,1085.0,2022,481,Alfred Laliberté / de Poutrincourt,45.53308,-73.694597
1231,5374.0,2022,482,Chabanel / du Parc,45.538308,-73.654884
1232,2230.0,2022,483,Gare Bois-de-Boulogne,45.539726,-73.677165
1233,1464.0,2022,484,Laforest / Dudemaine,45.539806,-73.687266
1234,3002.0,2022,485,Chabanel / de l'Esplanade,45.540686,-73.653376
1235,2405.0,2022,486,Papineau / Émile-Journault,45.559884,-73.633568
1236,3598.0,2022,487,16e avenue / Jean-Talon,45.56244,-73.595333
1237,5245.0,2022,488,Rosemont / Viau,45.56833,-73.566663
1238,2565.0,2022,489,de St-Firmin / Fleury,45.570657,-73.651842
1239,2403.0,2022,490,41e avenue / Rosemont,45.57179,-73.564315
1240,1384.0,2022,492,de Lisieux / Jean-Talon,45.579349,-73.581681
1241,501.0,2022,496,des Récollets / Martial,45.590892,-73.640617
1242,1737.0,2022,499,Liébert / Hochelaga,45.595875,-73.523528
1243,2389.0,2022,501,Bélanger / des Galeries d'Anjou,45.597221,-73.56279
1244,7405.0,2022,502,William / Robert-Bourassa,45.497165,-73.55933
1245,2748.0,2022,504,Gagne / LaSalle,45.422451,-73.601194
1246,512.0,2022,505,Parc Highlands (Highlands / LaSalle),45.426124,-73.657416
1247,2467.0,2022,507,Newman / Senkus,45.444043,-73.613752
1248,4590.0,2022,508,LaSalle / Godin,45.446934,-73.572199
1249,3102.0,2022,509,Elgar / de l'Île-des-Sœurs,45.456823,-73.546804
1250,3684.0,2022,510,Hickson / Wellington,45.464892,-73.566998
1251,3417.0,2022,511,Grand Boulevard / de Terrebonne,45.470544,-73.63168
1252,8391.0,2022,512,Turgeon / Notre-Dame,45.478888,-73.581989
1253,4375.0,2022,513,St-Jacques / des Seigneurs,45.489186,-73.5719
1254,22406.0,2022,514,des Bassins / du Séminaire,45.490452,-73.560172
1255,4173.0,2022,515,Parc Plage,45.502828,-73.527793
1256,1011.0,2022,516,Lusignan / St-Jacques,45.492222,-73.569348
1257,1147.0,2022,517,Bibliothèque du Boisé (Thimens / Todd),45.504635,-73.704432
1258,445.0,2022,519,Beaudet / Marcel-Laurin,45.506843,-73.681757
1259,1751.0,2022,520,Métro du Collège (Cartier / Décarie),45.508439,-73.672965
1260,1456.0,2022,521,Thimens / Alexis-Nihon,45.508978,-73.698564
1261,1110.0,2022,522,de l'Eglise / St-Germain,45.512559,-73.677011
1262,505.0,2022,523,Ste-Croix / Tassé,45.519492,-73.685104
1263,1517.0,2022,524,O'Brien / Poirier,45.52246,-73.691564
1264,3867.0,2022,525,Casino de Montréal,45.506373,-73.524577
1265,4119.0,2022,526,Quai de la navette fluviale,45.513741,-73.538382
1266,3393.0,2022,527,Métro Longueuil - Université de Sherbrooke,45.523319,-73.520127
1267,655.0,2022,528,Place Longueuil,45.52841,-73.517166
1268,572.0,2022,529,St-Charles / Montarville,45.533682,-73.515261
1269,1074.0,2022,530,Collège Édouard-Montpetit (de Gentilly / de Normandie),45.537226,-73.495067
1270,710.0,2022,531,St-Charles / Grant,45.539824,-73.508752
1271,19784.0,2022,532,Marché Atwater,45.480208,-73.577599
1272,7325.0,2022,533,Atwater / Greene,45.480495,-73.577827
1273,4759.0,2022,535,Leman / de Chateaubriand,45.547218,-73.631103
1274,15767.0,2022,537,Villeneuve / St-Laurent,45.521342,-73.589419
1275,8289.0,2022,538,Dollard / Van Horne,45.519153,-73.616469
1276,73.0,2022,541,Parc Outremont (Bloomfield / Elmwood),45.518309,-73.603286
1277,2549.0,2022,542,Parc Joyce (Rockland / Lajoie),45.515617,-73.614991
1278,2866.0,2022,543,Davaar / de la Côte-Ste-Catherine,45.514379,-73.610871
1279,14189.0,2022,544,Bloomfield / Bernard,45.520688,-73.608428
1280,7304.0,2022,546,Bloomfield / Van Horne,45.522586,-73.612658
1281,9362.0,2022,547,Métro Édouard-Montpetit (du Mont-Royal / Vincent-d'Indy),45.510086,-73.611429
1282,5688.0,2022,548,Waverly / St-Zotique,45.530505,-73.614708
1283,6274.0,2022,549,du Mont-Royal / Augustin-Frigon,45.543763,-73.56772
1284,9960.0,2022,550,Drolet / Beaubien,45.533348,-73.605834
1285,20134.0,2022,551,Métro Beaubien (de Chateaubriand / Beaubien),45.53536,-73.603635
1286,9705.0,2022,552,de Bellechasse / de St-Vallier,45.53341,-73.601124
1287,17570.0,2022,553,Boyer / Beaubien,45.537041,-73.602026
1288,4497.0,2022,555,Centre ÉPIC (St-Zotique / 40e avenue),45.574147,-73.574621
1289,8045.0,2022,556,Chabot / Beaubien,45.544376,-73.595645
1290,7141.0,2022,557,Louis-Hébert / de Bellechasse,45.546661,-73.588684
1291,8209.0,2022,558,Molson / Beaubien,45.549686,-73.591155
1292,7723.0,2022,559,Beaubien / 8e avenue,45.553457,-73.587842
1293,4920.0,2022,560,16e avenue / Beaubien,45.558281,-73.583159
1294,3836.0,2022,561,29e avenue / St-Zotique,45.567766,-73.579688
1295,8348.0,2022,562,de la Roche /  de Bellechasse,45.537159,-73.597476
1296,7282.0,2022,563,Chabot / de Bellechasse,45.54257,-73.592144
1297,9290.0,2022,564,Louis-Hébert / Beaubien,45.548186,-73.59201
1298,5487.0,2022,565,Alexandra / Jean-Talon,45.532331,-73.620187
1299,14369.0,2022,566,Marché Jean-Talon (Henri-Julien / Jean-Talon),45.536785,-73.614888
1300,14423.0,2022,567,Bélanger / St-Denis,45.53696,-73.61199
1301,8484.0,2022,568,de la Roche / Bélanger,45.54167,-73.607604
1302,10732.0,2022,569,Boyer / Bélanger,45.54006,-73.60897
1303,7746.0,2022,570,de Lanaudière / Bélanger,45.543651,-73.60565
1304,5675.0,2022,571,Cartier / Bélanger,45.546797,-73.602664
1305,3777.0,2022,572,des Érables / Bélanger,45.549121,-73.600874
1306,13718.0,2022,573,Parc Père-Marquette (Chambord / Rosemont),45.537088,-73.593219
1307,9237.0,2022,574,Boyer / Jean-Talon,45.541586,-73.612481
1308,6564.0,2022,575,Louis-Hémon / Rosemont,45.544599,-73.588223
1309,6464.0,2022,576,1ère avenue / Rosemont,45.5478,-73.584867
1310,4837.0,2022,577,5e avenue / Rosemont,45.5499,-73.583084
1311,6967.0,2022,578,Marquette / des Carrières,45.538799,-73.5887
1312,7407.0,2022,580,Cartier / Dandurand,45.539236,-73.585946
1313,3407.0,2022,581,de Gaspé / Marmier,45.529686,-73.601728
1314,7035.0,2022,582,Fabre / St-Zotique,45.543452,-73.60101
1315,5730.0,2022,583,de Bordeaux / St-Zotique,45.546539,-73.598665
1316,19029.0,2022,584,Marmier / St-Denis,45.530871,-73.598345
1317,3972.0,2022,585,Louis-Hébert / St-Zotique,45.55001,-73.59576
1318,5701.0,2022,586,Fabre / Beaubien,45.54206,-73.597873
1319,7663.0,2022,587,St-Zotique / Clark,45.531401,-73.612674
1320,6318.0,2022,588,Parc du Pélican (2e avenue / St-Joseph),45.544513,-73.571564
1321,16551.0,2022,589,St-Dominique / St-Zotique,45.532265,-73.611063
1322,5538.0,2022,590,de Gaspé / Dante,45.534298,-73.612172
1323,4674.0,2022,591,Mozart / St-Laurent,45.53318,-73.61544
1324,13374.0,2022,592,Boyer / St-Zotique,45.53848,-73.60556
1325,6779.0,2022,593,de St-Vallier / St-Zotique,45.536261,-73.607546
1326,7130.0,2022,594,Drolet / St-Zotique,45.534882,-73.609412
1327,4528.0,2022,597,12e avenue / St-Zotique,45.556867,-73.589307
1328,4189.0,2022,598,1ère  avenue / St-Zotique,45.551937,-73.593928
1329,14850.0,2022,600,Jardin Botanique (Pie-IX / Sherbrooke),45.554947,-73.555295
1330,6594.0,2022,601,18e avenue / Rosemont,45.557896,-73.576529
1331,4330.0,2022,602,Hôpital Maisonneuve-Rosemont (Rosemont / Chatelain),45.575707,-73.561562
1332,3900.0,2022,604,35e avenue / Beaubien,45.570081,-73.573047
1333,6359.0,2022,606,de Chambly / Rachel,45.549911,-73.558263
1334,16359.0,2022,607,10e avenue / Masson,45.550306,-73.573353
1335,7636.0,2022,608,d'Orléans / Masson,45.557192,-73.569847
1336,8552.0,2022,611,15e avenue / Masson,45.553898,-73.571387
1337,5151.0,2022,613,Parc J.-Arthur-Champagne (de Chambly / du Mont-Royal),45.551584,-73.561916
1338,7312.0,2022,614,Omer-Lavallée / du Midway,45.545776,-73.562175
1339,6165.0,2022,615,Bourbonnière / du Mont-Royal,45.553571,-73.560494
1340,6198.0,2022,616,Cartier / Rosemont,45.541247,-73.591044
1341,8095.0,2022,619,St-Urbain / Beaubien,45.52951,-73.61068
1342,3952.0,2022,620,Ernest-Gendreau / du Mont-Royal,45.549714,-73.563848
1343,5386.0,2022,622,Place Émilie-Gamelin (St-Hubert / de Maisonneuve),45.515901,-73.559948
1344,10337.0,2022,623,de Maisonneuve / Mansfield (nord),45.502311,-73.573364
1345,9041.0,2022,624,St-Jacques / McGill,45.501441,-73.560144
1346,14095.0,2022,625,St-Urbain / René-Lévesque,45.507838,-73.563136
1347,13101.0,2022,626,de Maisonneuve / Mansfield (sud),45.502145,-73.573427
1348,7737.0,2022,627,Durocher / Bernard,45.522225,-73.606687
1349,3432.0,2022,628,La Ronde,45.521565,-73.535332
1350,9392.0,2022,629,Aylmer / Sherbrooke,45.506587,-73.573299
1351,8606.0,2022,630,Querbes / Laurier,45.51754,-73.597832
1352,4389.0,2022,631,26e avenue / Beaubien,45.564944,-73.577639
1353,3083.0,2022,633,Jogues / Allard,45.45002,-73.600306
1354,13464.0,2022,634,Mackay / Ste-Catherine,45.495709,-73.576952
1355,5820.0,2022,635,19e avenue / St-Zotique,45.561594,-73.585643
1356,12291.0,2022,636,de Maisonneuve / Greene,45.486971,-73.589293
1357,4860.0,2022,637,Hillside / Ste-Catherine,45.482826,-73.590843
1358,8934.0,2022,638,Victoria / de Maisonneuve,45.477429,-73.600169
1359,5787.0,2022,639,Victoria Hall,45.481291,-73.60033
1360,2435.0,2022,641,2e avenue / Jean-Rivard,45.562509,-73.61656
1361,7829.0,2022,642,Henri-Julien / de Castelnau,45.537891,-73.618215
1362,3795.0,2022,645,Louis-Hébert / Bélanger,45.551585,-73.599165
1363,16394.0,2022,646,Gary-Carter / St-Laurent,45.5359,-73.622443
1364,5031.0,2022,647,St-Dominique / Gounod,45.538738,-73.628022
1365,3445.0,2022,648,Guizot / St-Laurent,45.539663,-73.634475
1366,2239.0,2022,65,Bel Air / St-Antoine,45.482778,-73.584621
1367,5478.0,2022,650,Drolet / Gounod,45.540951,-73.626375
1368,4737.0,2022,651,de Gaspé / Jarry,45.54078,-73.630401
1369,5088.0,2022,652,Guizot / St-Denis,45.543424,-73.632462
1370,4859.0,2022,653,de Gaspé / de Liège,45.542485,-73.636342
1371,6166.0,2022,654,du Rosaire / St-Hubert,45.544819,-73.62151
1372,4426.0,2022,656,de Chateaubriand / Jarry,45.545955,-73.626992
1373,3692.0,2022,657,de la Roche / Everett,45.544867,-73.614841
1374,5055.0,2022,658,Marquette / Villeray,45.550684,-73.615293
1375,8542.0,2022,659,St-Dominique / Jean-Talon,45.535248,-73.617564
1376,606.0,2022,660,Louis-Hémon / Villeray,45.554961,-73.610737
1377,4894.0,2022,661,Métro St-Michel (Shaughnessy / St-Michel),45.559199,-73.599658
1378,4596.0,2022,663,d'Outremont / Ogilvy,45.52687,-73.626723
1379,6074.0,2022,664,de Normanville / Villeray,45.54717,-73.618041
1380,9198.0,2022,665,Lajeunesse / Villeray,45.542119,-73.622547
1381,1945.0,2022,666,Villeray / St-Michel,45.561059,-73.603967
1382,5138.0,2022,669,de Bordeaux / Jean-Talon,45.549755,-73.605566
1383,5044.0,2022,674,Drolet / Jarry,45.541955,-73.629942
1384,4534.0,2022,675,Clark / de Liège,45.539984,-73.638135
1385,16487.0,2022,676,Boyer / Rosemont,45.534136,-73.595478
1386,14269.0,2022,677,Bernard / St-Urbain,45.526267,-73.603191
1387,541.0,2022,678,CIUSSS (du Trianon / Pierre-de-Coubertin),45.587531,-73.531907
1388,2197.0,2022,680,Hôpital Santa Cabrini (St-Zotique / Jeanne-Jugan),45.579325,-73.570504
1389,4446.0,2022,681,St-Denis / René-Lévesque,45.512871,-73.558466
1390,12342.0,2022,684,Jeanne-Mance / René-Lévesque,45.506371,-73.564201
1391,3435.0,2022,686,Desjardins / Ontario,45.551192,-73.540873
1392,7018.0,2022,687,Metcalfe / du Square-Dorchester,45.500208,-73.571138
1393,7668.0,2022,688,Métro Viau (Pierre-de-Coubertin / Viau),45.561783,-73.546611
1394,3831.0,2022,689,de Mentana / Gilford,45.528724,-73.583859
1395,4534.0,2022,690,St-Maurice / Robert-Bourassa,45.498578,-73.560242
1396,3801.0,2022,691,Métro Honoré-Beaugrand (Sherbrooke / Honoré-Beaugrand),45.596797,-73.535179
1397,3518.0,2022,692,Paré / Mountain Sights,45.4981,-73.652942
1398,2934.0,2022,693,Métro Radisson (Sherbrooke / des Groseilliers),45.589175,-73.539656
1399,3186.0,2022,694,Graham / Brookfield,45.520222,-73.629856
1400,5225.0,2022,696,Hutchison / Beaubien,45.526058,-73.612969
1401,565.0,2022,699,St-Jean-Baptiste / René-Lévesque,45.641557,-73.500375
1402,495.0,2022,701,du Tricentenaire / Prince-Albert,45.649546,-73.491916
1403,5237.0,2022,702,de Maisonneuve / Aylmer (est),45.505386,-73.570432
1404,325.0,2022,703,du Souvenir / Chomedey,45.551886,-73.74444
1405,1188.0,2022,704,Métro Montmorency,45.558109,-73.719598
1406,531.0,2022,705,Parc St-Claude (7e avenue / 8e rue),45.562668,-73.692362
1407,1485.0,2022,706,Métro Cartier,45.56003,-73.681336
1408,14451.0,2022,749,Atateken / du Square Amherst,45.520634,-73.563906
1409,2228.0,2022,75,St-Joseph / 8e avenue Lachine,45.43155,-73.67112
1410,20032.0,2022,750,Métro Sherbrooke (de Rigaud / St-Denis),45.517999,-73.568184
1411,4854.0,2022,751,Bourget / St-Jacques,45.480846,-73.583862
1412,8927.0,2022,752,Métro Bonaventure (de la Gauchetière / de la Cathédrale),45.498312,-73.567256
1413,12496.0,2022,753,Mansfield / Ste-Catherine,45.501399,-73.571786
1414,19044.0,2022,756,Notre-Dame / Jean-d'Estrées,45.49426,-73.563818
1415,11205.0,2022,757,de Gaspé / Beaubien,45.531958,-73.607001
1416,8835.0,2022,759,Ann / Wellington,45.494527,-73.556753
1417,12959.0,2022,760,St-Dominique / de Bellechasse,45.529504,-73.604865
1418,15140.0,2022,761,St-Dominique / du Mont-Royal,45.52056,-73.58582
1419,15316.0,2022,762,St-Dominique / Napoléon,45.516664,-73.57722
1420,9705.0,2022,763,Métro Jean-Talon (Berri / Jean-Talon),45.539,-73.614251
1421,28181.0,2022,764,St-Dominique / Laurier,45.523615,-73.592457
1422,8046.0,2022,765,Faillon / St-Denis,45.539864,-73.620313
1423,6982.0,2022,767,de Gaspé / Villeray,45.538887,-73.623907
1424,2793.0,2022,769,Grand Trunk / d'Hibernia,45.47968,-73.56385
1425,4412.0,2022,770,Rivier / Davidson,45.546115,-73.557093
1426,11174.0,2022,771,Métro Parc  (Hutchison / Ogilvy),45.530351,-73.624392
1427,2909.0,2022,774,Parc St-Henri (Laporte / Guay),45.480134,-73.585908
1428,4250.0,2022,775,St-Hubert / St-Joseph,45.528088,-73.585863
1429,3733.0,2022,776,de la Côte St-Antoine / Argyle,45.486241,-73.595728
1430,4278.0,2022,778,Métro Jolicoeur (de Sève / Drake),45.456086,-73.581937
1431,9655.0,2022,779,de Bleury / de Maisonneuve,45.507097,-73.568442
1432,528.0,2022,78,8e avenue / Notre-Dame Lachine,45.434898,-73.670819
1433,1872.0,2022,780,LaSalle / 80e avenue,45.415769,-73.637924
1434,3900.0,2022,781,Kirkfield / de Chambois,45.512933,-73.63389
1435,8665.0,2022,784,de la Côte St-Paul / St-Ambroise,45.467666,-73.593918
1436,1786.0,2022,785,des Jockeys / Décarie,45.494044,-73.654495
1437,2457.0,2022,786,LaSalle / 37e avenue,45.41631,-73.612916
1438,5183.0,2022,788,Bennett / Pierre-de-Coubertin,45.55816,-73.5484
1439,951.0,2022,79,Victoria / 18e avenue Lachine,45.435996,-73.680111
1440,7695.0,2022,790,Métro de Castelnau (de Castelnau / St-Laurent),45.535709,-73.619624
1441,3142.0,2022,834,Graham / Wicksteed,45.516937,-73.640483
1442,9078.0,2022,835,Melville / de Maisonneuve,45.48184,-73.595379
1443,9476.0,2022,837,de Maisonneuve / Aylmer (ouest),45.505063,-73.570681
1444,15601.0,2022,838,Drolet / Marie-Anne,45.522403,-73.581177
1445,20289.0,2022,84,Parthenais / du Mont-Royal,45.536346,-73.57131
1446,4426.0,2022,841,de Laprairie / Centre,45.481367,-73.564319
1447,3148.0,2022,842,Graham / Kindersley,45.51405,-73.647256
1448,1942.0,2022,843,Glengarry / Graham,45.50919,-73.660321
1449,9384.0,2022,845,Garnier / St-Grégoire,45.535834,-73.587021
1450,3819.0,2022,846,Chabot / Villeray,45.552289,-73.613007
1451,1922.0,2022,852,Eleanor / Ottawa,45.492463,-73.560784
1452,15550.0,2022,855,Clark / Ontario,45.510625,-73.566903
1453,16743.0,2022,856,Smith / Peel,-1.0,-1.0
1454,5136.0,2022,858,Henri-Julien / de Bellechasse,45.529504,-73.604865
1455,5655.0,2022,859,Campus MIL (Outremont / Thérèse-Lavoie Roux),45.523172,-73.618097
1456,3491.0,2022,86,Parc Pratt (Dunlop / Van Horne),45.515007,-73.619788
1457,23869.0,2022,860,Parc Jean-Drapeau (Chemin Macdonald),45.512801,-73.531116
1458,288.0,2022,862,St-Charles / St-Sylvestre,45.536344,-73.512778
1459,5385.0,2022,864,Métro Villa-Maria (de Monkland / Décarie),45.478968,-73.619599
1460,21604.0,2022,865,Jeanne-Mance / Laurier,45.520125,-73.595214
1461,2745.0,2022,866,des Ormeaux / Notre-Dame,45.599266,-73.512261
1462,3883.0,2022,868,10e avenue / Holt,45.551912,-73.579211
1463,5901.0,2022,869,Christophe-Colomb / St-Joseph,45.530365,-73.584393
1464,191.0,2022,873,Clark / St-Zotique,45.531611,-73.61335
1465,5751.0,2022,876,Plessis / Logan,45.521768,-73.557103
